stop_id,stop_code,stop_name,stop_desc,stop_lat,stop_lon,stop_url,location_type,parent_station
2388,3010,Zaczarnie - Pętla,,50.0728688241737,21.0936707625592,,,
2520,3008,Zaczarnie - Skrzyżowanie,,50.0673049787879,21.0932221911642,,,
2521,3006,Zaczarnie - Zlewnia,,50.0662440477837,21.0830716785834,,,
2522,3004,Zaczarnie - Szkoła,,50.0630703426418,21.0695966409079,,,
2523,3002,Zaczarnie - Krzyż,,50.0602814061447,21.0564893542825,,,
2524,3000,Zaczarnie - Koło Rolnicze,,50.0591402148673,21.0455004243832,,,
2525,2998,Zaczarnie,,50.0547817377782,21.0326422403794,,,
2526,2996,Brzozówka,,50.0571683171955,21.0225710894105,,,
2527,2994,Brzozówka - Szkoła,,50.0591773988553,21.0148532859621,,,
2379,3127,Tarnów Jana Pawła II - Niepodległości,,50.0353291081091,21.0117091783903,,,
2423,3286,Tarnów Błonie,,50.0355597213679,21.0062280526585,,,
2424,2950,Tarnów Nowodąbrowska - Spokojna,,50.0352182501421,21.0019404797066,,,
2425,2948,Tarnów Nowodąbrowska - 16 Pułku Piechoty,,50.0317029394157,20.9995204977095,,,
2426,2893,Tarnów Matki Bożej Fatimskiej - Krzyska,,50.0247489270075,20.9955866688847,,,
2427,2894,Tarnów Matki Bożej Fatimskiej - Marszałka,,50.0203436085882,20.993515967967,,,
2039,5109,Tarnów Goldhammera - Mickiewicza,,50.01561,20.98954,,,
2037,5129,Tarnów Solidarności - Klikowska,,50.01569,20.97992,,,
1523,2511,Tarnów Sikorskiego,,50.01048608,20.97645254,,,
2274,3063,Tarnów Dworzec Autobusowy,,50.0065657825417,20.9729420129381,,,
1271,2508,Tarnów Krakowska – Planty,,50.0079631098273,20.9755665063858,,,
2063,5131,Tarnów Solidarności - Grottgera,,50.0154,20.97942,,,
2064,5130,Tarnów Solidarności - Seminarium,,50.01547,20.98503,,,
2065,5108,Tarnów Goldhammera - PWSZ,,50.01575,20.98965,,,
2066,5118,Tarnów Matki Bożej Fatimskiej - Kościół,,50.01946,20.99337,,,
2275,2874,Tarnów Matki Bożej Fatimskiej - Szpitalna,,50.0252383141761,20.9960131401188,,,
2376,2946,Tarnów Nowodąbrowska - Os. Legionów,,50.0283857520587,20.9984402476567,,,
2377,2947,Tarnów Nowodąbrowska - Gemini,,50.0306363830222,20.9992055083939,,,
2378,3285,Tarnów Błonie - Nowodąbrowska,,50.0354815237862,21.0036870852929,,,
2428,2957,Brzozówka Koło Kapliczki,,50.0602950493314,21.0127059661566,,,
2429,2959,Brzozówka org,,50.066335276048,21.0160766093147,,,
2430,2961,Lisia Góra - Kościół,,50.082338229513,21.0262332730866,,,
2431,2962,Lisia Góra Mleczarnia,,50.0795859999213,21.0377657215151,,,
2432,2964,Lisia Góra - ul. Długa Skrzyżowanie,,50.0789684145696,21.0468072672119,,,
2433,2966,Lisia Góra - ul. Długa,,50.0784381065922,21.0533035383119,,,
2434,2968,Lisia Góra Długa Rondo,,50.0782615962,21.065099644658,,,
2435,2970,Lisia Góra Długa Dębiarze,,50.0797964864912,21.0775411828581,,,
2436,2972,Stare Żukowice I,,50.0903843288952,21.0833263667812,,,
2437,2974,Stare Żukowice - Kościół,,50.0875110798158,21.0945337314693,,,
2438,2976,Stare Żukowice - Szkoła,,50.0871231246813,21.10628382284,,,
2439,2978,Stare Żukowice - Wieś,,50.0858627076462,21.1192814643609,,,
2440,2980,Nowe Żukowice,,50.0851689807195,21.135305286626,,,
2817,5209,Nowe Żukowice Gołębin,,50.0828702454964,21.1405516141175,,,
2441,2982,Nowa Jastrząbka - Cmentarz,,50.0844579472237,21.1496521469438,,,
2442,2984,Nowa Jastrząbka - Kościół,,50.0916228462924,21.1486005024815,,,
2443,2986,Nowa Jastrząbka - Laski,,50.0990295420787,21.1461592931182,,,
2444,2988,Nowa Jastrząbka - Kraków,,50.1096461508079,21.1477698692497,,,
2445,2991,Nowa Jastrząbka - Wesoła,,50.1182474997844,21.1449959948338,,,
2404,2993,Nowa Jastrząbka - Bar,,50.1236282024463,21.1430244344692,,,
2133,5181,Zawada - Pętla,,49.97327,21.01168,,,
2134,5182,Zawada - Szkoła,,49.97906,21.01406,,,
2135,5177,Zawada - Bąbel,,49.98085,21.01011,,,
2136,5180,Zawada - Granica,,49.97923,20.99995,,,
2137,5104,Tarnowiec - ul. Zawadzka - Szkoła,,49.98134,20.98821,,,
1457,2520,Tarnowiec Kościół,,49.98598644,20.98530936,,,
1458,2521,Tarnów Tuchowska - Granica Miasta,,49.98884474,20.98535292,,,
1459,2522,Tarnów Tuchowska - Hala Tuchowska,,49.99764009,20.98622925,,,
1460,2531,Tarnów Tuchowska - Cmentarz,,50.00845786,20.98952944,,,
1461,2525,Tarnów Narutowicza - Łazienna,,50.008535409726,20.9865581989288,,,
1462,2514,Tarnów Narutowicza - Bandrowskiego,,50.00853723,20.98083396,,,
1463,2509,Tarnów Krakowska - Pl. Popiełuszki,,50.0083216599587,20.9758776426315,,,
1272,2528,Tarnów Narutowicza - Cmentarz,,50.00867531,20.98848407,,,
1273,2523,Tarnów Tuchowska -  Hala Tuchowska,,49.99829699,20.98624773,,,
1274,2519,Tarnowiec Granica,,49.98800271,20.98522045,,,
1275,2518,Tarnowiec POM,,49.98516623,20.98503402,,,
1276,2524,Tarnowiec,,49.98159355,20.98626104,,,
1277,2529,Tarnowiec Zimna Woda,,49.97671551,20.98871049,,,
1278,2535,Nowodworze,,49.97092697,20.99220898,,,
1279,2540,Nowodworze II,,49.96735123,20.99465951,,,
1280,2532,Poręba Radlna Kościół,,49.96167225,20.99068745,,,
1281,2538,Poręba Radlna Szkoła,,49.95863769,20.99376151,,,
1282,2545,Poręba Radlna,,49.95653237,21.00054814,,,
1283,2548,Poręba Radlna Pętla,,49.9552771861871,21.0056367516518,,,
1284,2552,Poręba Radlna Góra,,49.95188161,21.00934435,,,
2138,5063,Łękawka - Las,,49.94513,21.01662,,,
2139,5062,Łękawka - Kościół,,49.94725,21.02989,,,
2140,5064,Łękawka - Las,,49.94594,21.01874,,,
1285,2560,Łękawka Skrzyżowanie,,49.94453529,21.01559089,,,
1286,2554,Łękawka Parking,,49.93751439,21.01328295,,,
1287,2555,Łękawka Pętla,,49.93442667,21.01364514,,,
2038,5117,Tarnów Marszałka,,50.02013,20.99257,,,
1524,2506,Tarnów ul. Krakowska - Ślusarska,,50.00428137,20.96680775,,,
1525,2504,Tarnów ul. Krakowska - Warsztatowa,,50.00204552,20.9617299,,,
1526,2502,Tarnów ul. Krakowska - Braci Żmudów,,49.99886457,20.95458739,,,
2040,5110,Tarnów Koszycka - Krakowska,,49.99574,20.94748,,,
2041,5054,Koszyce Wielkie - ul. Tarnowska - Maczka,,49.99075,20.94904,,,
2042,5052,Koszyce Wielkie - ul. Tarnowska - Kościół,,49.98554,20.94848,,,
2043,5051,Koszyce Wielkie - ul. Tarnowska - Kędronia,,49.98046,20.94578,,,
2171,5046,Koszyce Wielkie - ul. Kędronia - Remiza,,49.9802,20.94137,,,
2172,5048,Koszyce Wielkie - ul. Kędronia - Sklep,,49.98038,20.93471,,,
2173,5050,Koszyce Wielkie - ul. Stachury - Brzezinki,,49.9781,20.92807,,,
2174,5199,Zgłobice - ul. Topolowa - Miła,,49.97563,20.91661,,,
2175,5197,Zgłobice - ul. Topolowa - Kolorowa,,49.97524,20.91153,,,
2176,5201,Zgłobice - ul. Topolowa - SKR,,49.9746476553231,20.9063413739204,,,
2053,5203,Zgłobice - ul. Zgłobicka - ODR,,49.97659,20.90338,,,
2177,5206,Zgłobice - ul. Zgłobicka - Słoneczna,,49.97275,20.90585,,,
2178,5204,Zgłobice - ul. Zgłobicka - Sklep,,49.96751,20.9108,,,
2179,5041,Koszyce Małe - ul. Wolska - Jałowce,,49.96649,20.91403,,,
2180,5037,Koszyce Małe - ul. Wolska - Dęby,,49.96434,20.91813,,,
2181,5043,Koszyce Małe - ul. Wolska - Klub,,49.96241,20.92444,,,
2182,5045,Koszyce Małe - ul. Wolska,,49.96273,20.93337,,,
2183,5039,Koszyce Małe - ul. Wolska - Główna,,49.96147,20.94054,,,
2184,5034,Koszyce Małe - ul. Główna - Szkoła,,49.96579,20.9456,,,
2185,5031,Koszyce Małe - ul. Główna - Remiza,,49.96918,20.94676,,,
2186,5057,Koszyce Wielkie - ul. Tarnowska - Świerkowa,,49.97464,20.94629,,,
2060,5055,Koszyce Wielkie - ul. Tarnowska - Szklarniowa,,49.98077,20.94598,,,
2061,5053,Koszyce Wielkie - ul. Tarnowska - Kościół,,49.9858,20.9487,,,
2062,5207,Tarnów Koszycka - Chrobrego,,49.9909737322517,20.9491038322449,,,
1643,2501,Tarnów ul. Krakowska - Koszycka,,49.99636335,20.94796149,,,
1644,2503,Tarnów ul. Krakowska - Kąpielowa,,49.9992763,20.95597221,,,
1645,2505,Tarnów ul. Krakowska - Zakładowa,,50.00198694,20.96202357,,,
1646,2507,Tarnów ul. Krakowska - Przemysłowa,,50.0041041,20.96681704,,,
2324,3125,Proszowice P+R Kościuszki,,50.1950365953091,20.2751252511253,,,
2325,3123,Proszowice Parcela,,50.1927849944586,20.2850840385357,,,
2326,3121,Proszowice Mały Rynek,,50.1916613701064,20.2881274794368,,,
2719,3396,Proszowice ul. Kolejowa,,50.1908225223962,20.2966060861897,,,
57,4423,Proszowice Szpital,,50.1862210981289,20.297958701849,,,
58,4424,Proszowice Nowe Bloki,,50.1903804683435,20.3064545989037,,,
59,4350,Jakubowice,,50.18741,20.322467,,,
60,4356,Kowala,,50.176055,20.349215,,,
61,4359,Kowala Grębocin,,50.163916,20.358112,,,
62,4362,Szpitary,,50.157098,20.360123,,,
63,4364,Szpitary I,,50.153588,20.362529,,,
64,4365,Szpitary II,,50.14583,20.363824,,,
65,4368,Nowe Brzesko (Partyzantów),,50.130893,20.372378,,,
66,4369,Nowe Brzesko Rynek,,50.132134,20.376837,,,
2818,3519,Nowe Brzesko-Nękanowice I,,50.12569036,20.36670066,,,
2819,3518,Nowe Brzesko-Nękanowice II,,50.12238736,20.35912006,,,
2820,3515,Wawrzeńczyce III,,50.11728222,20.3403602,,,
2821,3514,Wawrzeńczyce II,,50.11491305,20.3325876,,,
2822,3512,Wawrzeńczyce I,,50.1121369,20.32345538,,,
2823,3510,Wawrzeńczyce,,50.10895781,20.31299108,,,
2336,3102,Wawrzeńczyce UG,,50.1065953442449,20.2950063816616,,,
2337,3100,Złotniki,,50.1014087186875,20.2702411237394,,,
2338,3098,Igołomia I,,50.0937852194366,20.2521775404465,,,
2339,3096,Igołomia II,,50.0908568377712,20.2434785662858,,,
2340,3094,Zofipole,,50.0859640063458,20.2281926250842,,,
2341,3092,Pobiednik Wielki II,,50.0846244846101,20.2173038402129,,,
2342,3090,Pobiednik Wielki I,,50.083353454154,20.2066596440235,,,
2343,3088,Pobiednik Wielki Komora,,50.0819541632779,20.1931208017131,,,
2824,3509,Cło,,50.0805218337593,20.1857149600983,,,
2825,3505,Wyciąże Północ,,50.0780053712452,20.1632112264633,,,
2826,3504,Wyciąska,,50.077106848525,20.1555240154266,,,
2827,3499,Szymańskiego,,50.07512828,20.13879943,,,
2828,3495,Brama nr 8,,50.07358983,20.12596878,,,
2829,3493,Pleszów,,50.07268262,20.11865934,,,
2830,3491,Koksochemia,,50.07207524,20.10540235,,,
2831,3489,Meksyk,,50.06985517,20.0963902,,,
2832,3486,Brama nr 5,,50.0689301668301,20.0918264995606,,,
2833,3484,Giedroycia,,50.0644358699869,20.0809076754573,,,
2834,3483,Fort Mogiła,,50.0656189833773,20.070493307592,,,
2835,3481,Klasztorna,,50.0688062037441,20.0518821428998,,,
2836,3479,Os. Wandy,,50.0694168738906,20.048598972057,,,
2837,3478,Os. Na Skarpie,,50.0696921480963,20.046944009643,,,
2838,3475,Plac Centralny im. R.Reagana,,50.0731468104439,20.036266896149,,,
2839,3532,Os. Zgody,,50.0772267021159,20.0307277907182,,,
2840,3530,Rondo Kocmyrzowskie im. Ks. Gorzelanego,,50.0790816007886,20.0262483512185,,,
2841,3474,Bieńczycka,,50.0764344484927,20.021580887667,,,
2842,3472,Rondo Czyżyńskie,,50.0738611633792,20.0165676615943,,,
2843,3470,Czyżyny Dworzec,,50.0747283849019,20.0151598009688,,,
294,1,Myślenice D.A.,,49.834597,19.948817,,,
1204,2145,Myślenice Słowackiego osiedle,,49.83348288,19.94088554,,,
1203,2134,Myślenice ul. Pardyaka /blok nr 18/,,49.8322515507832,19.931605224,,,
295,3,Myślenice Carrefour,,49.832744,19.943564,,,
1205,2152,Myślenice Estakada,,49.83465909,19.95034017,,,
1206,2129,Myślenice Tarnówka,,49.84573585,19.92641205,,,
1208,2115,Jawornik,,49.85700262,19.91097423,,,
1209,2113,Jawornik Syberia,,49.86112146,19.90980566,,,
1210,4509,Krzyszkowice Zakopianka,,49.87364369,19.90655907,,,
1211,2098,Głogoczów Bęczarka,,49.87936635,19.88314165,,,
1212,2092,Głogoczów,,49.89501725,19.87389704,,,
1213,2089,Głogoczów Dwór,,49.90198826,19.87159643,,,
1214,2093,Głogoczów Podlesie,,49.91462398,19.87426108,,,
1215,2097,Mogilany Włosań,,49.92504892,19.88300934,,,
1216,2107,Mogilany Ośrodek Zdrowia,,49.94248008,19.89278382,,,
1217,2102,Gaj Zadziele,,49.95579889,19.88955088,,,
1218,2106,Gaj Szkoła,,49.96143227,19.89208569,,,
1219,2111,Libertów Góra Libertowska,,49.97374096,19.90757532,,,
1220,2117,Ważewskiego,,49.98375886,19.91280251,,,
1221,2119,Opatkowice,,49.98784402,19.91507173,,,
2238,2823,Opatkowice Wiadukt,,49.9944350738461,19.918356445564,,,
2239,2821,Kąpielowa,,49.9974412775011,19.9199768089837,,,
1222,2124,Judyma,,50.00240116,19.92256567,,,
1223,2127,Góra Borkowska,,50.00736135,19.92526788,,,
1224,2132,Borek Fałęcki,,50.01157364,19.92750022,,,
1790,4532,Łagiewniki SKA,,50.0218377380492,19.9329328536987,,,
1225,2141,Łagiewniki,,50.0294239,19.93688338,,,
1226,2144,Rondo Matecznego,,50.03721426,19.9401864,,,
1227,2138,Ludwinów,,50.0432433391708,19.9350893497467,,,
1228,2135,Rondo Grunwaldzkie,,50.0497196506728,19.9321764707565,,,
2240,2819,Konopnickiej,,50.0527657483402,19.9296218271959,,,
1229,4507,Jubilat,,50.0565222814186,19.927031993866,,,
864,894,Muzeum Narodowe,,50.0596457,19.92519662,,,
865,895,AGH/UR,,50.06411345,19.92427837,,,
866,896,Plac Inwalidów,,50.06928041,19.92684353,,,
867,897,Radio Kraków,,50.07175809,19.93028469,,,
129,656,Kraków MDA,,50.0678762207177,19.9493801593781,,,
2575,3011,Skawina SCK,,49.9764697443215,19.8214017675712,,,
2574,3062,Skawina Cmentarz,,49.9752381768269,19.8311271133629,,,
2589,3013,Skawina Rynek,,49.975344521355,19.8279212025737,,,
2590,3059,Skawina Szkoła,,49.9757498699626,19.8224086284998,,,
2591,3014,Skawina Sąd,,49.9755802377051,19.8155955666576,,,
2592,3016,Skawina Koncentraty,,49.9716689096665,19.815029745865,,,
2593,3018,Rzozów Baseny,,49.9618964155163,19.8056158172788,,,
2594,3021,Rzozów I,,49.9578780045522,19.8010960234578,,,
2595,3022,Rzozów Szkoła,,49.9523952395865,19.793715059427,,,
2596,3024,Gołuchowice,,49.9461340617557,19.7845360517209,,,
2597,3026,Gołuchowice Jurczyce,,49.9435534921776,19.7771296514588,,,
2598,3028,Gołuchowice Sklep,,49.9405374157222,19.7711966678867,,,
2599,3030,Polanka Hallera Dwór,,49.937673867237,19.7658298494414,,,
2600,3032,Grabie Polanka,,49.9332488927755,19.7514298989306,,,
2601,3034,Grabie Kuźnia,,49.9277732080646,19.7393415835071,,,
2602,3036,Grabie Pętla,,49.9264286042203,19.734015669098,,,
2603,3038,Przytkowice Grabie III,,49.9231160306483,19.722558550603,,,
2604,3040,Przytkowice Skrzyżowanie do Leńcz,,49.9200099365527,19.7086397885114,,,
2605,3042,Przytkowice Centrum Mleczarnia,,49.9133298332552,19.699870862656,,,
2606,3044,Przytkowice Skrzyżowanie,,49.9061347261522,19.7001713044056,,,
2607,3046,Przytkowice Kapliczka,,49.8987196501375,19.6820079393939,,,
2608,3048,Zebrzydowice Remiza,,49.8908755846024,19.6729856351009,,,
2609,3050,Zebrzydowice Szkoła,,49.8850133889362,19.6725873102084,,,
2610,3052,Zebrzydowice PGR,,49.8806641030454,19.6771330460945,,,
2611,3054,Kalwaria Zebrzydowska Świt,,49.874284140183,19.6807210667259,,,
2612,3056,Kalwaria Zebrzydowska Mickiewicza,,49.8713556244666,19.6791866718531,,,
2549,3128,Kalwaria Zebrzydowska al. Jana Pawła II,,49.8679636833291,19.6797045047091,,,
2548,3296,Kalwaria Zebrzydowska D.A.,,49.8663460918487,19.6819401804734,,,
940,4511,Muzeum Armii Krajowej,,50.07164722,19.94882287,,,
941,4512,Cmentarz Rakowicki Zachód,,50.07627621,19.9476568,,,
942,4513,Biskupa Prandoty,,50.07917544,19.94993652,,,
943,4514,UR Al. 29 listopada,,50.08325258,19.95271695,,,
944,4515,Opolska Estakada,,50.08658164,19.95364246,,,
945,4516,Imbramowska,,50.08814325,19.94759631,,,
946,4517,Mackiewicza,,50.09030433,19.94334819,,,
2251,2833,Pleszowska,,50.0917869078643,19.9342962683528,,,
2252,2832,Pachońskiego P+R,,50.0948556055981,19.9296221915108,,,
138,665,Piaszczysta,,50.0966089246192,19.931543469429,,,
139,666,Glogera,,50.1024862148923,19.9276167154312,,,
140,667,Glogera Granica Miasta,,50.1042994955508,19.9264633655548,,,
141,668,Zielonki Skrzyżowanie,,50.1083799861657,19.9242049455643,,,
142,669,Zielonki Urząd Gminy,,50.1184971396964,19.921270608902,,,
143,670,Zielonki Transformator,,50.1239040037512,19.9204123020172,,,
144,671,Zielonki Rozjazd,,50.1294099850712,19.9170649051666,,,
145,672,Trojanowice Strugi,,50.1342207518696,19.9061751365662,,,
146,673,Trojanowice Słoneczna,,50.1396017727777,19.8987078666687,,,
147,674,Januszowice,,50.1494338960026,19.8931449651718,,,
148,675,Przybysławice Centrum,,50.1576315162882,19.8952639102936,,,
149,676,Przybysławice Na Lipowiec,,50.159916975367,19.8971307277679,,,
150,677,Przybysławice Na Stoczki,,50.164023653574,19.8994374275208,,,
151,678,Brzozówka Ośrodek,,50.1724592788894,19.8983645439148,,,
152,679,Brzozówka Oskarówka,,50.1758743387384,19.895516037941,,,
153,680,Cianowice Niebyła - Świńczów,,50.1830163156294,19.8876464366913,,,
154,681,Cianowice Małe,,50.1865680123816,19.885618686676,,,
155,682,Cianowice Szczodrkowice,,50.197767523432,19.8836767673492,,,
947,2835,Cianowice Duże,,50.2041199574552,19.880750477314,,,
1971,2785,Cianowice Marianów,,50.2086238555626,19.8906186225233,,,
156,683,Rzeplin Centrum,,50.2120318825867,19.9049246988381,,,
157,684,Przybysławice Skały,,50.2212981975146,19.9116039276123,,,
158,685,Przybysławice Centrum OSP,,50.2252283046725,19.9156104241946,,,
1972,2772,Przybysławice Krzyżówka,,50.2322844078652,19.9150036321617,,,
948,3538,Przybysławice II (DW773),,50.23401056,19.90179499,,,
921,2104,Nowa Wieś (Minoga),,50.23521563,19.89030456,,,
922,2094,Nowa Wieś,,50.23337951,19.87880726,,,
923,2087,Skała Ośrodek,,50.23104751,19.85943469,,,
924,843,Skała Rynek,,50.2303706,19.85322556,,,
925,2086,Skała Ośrodek,,50.23078923,19.85779306,,,
926,2095,Nowa Wieś,,50.2334469346047,19.8795676231384,,,
2980,2105,Nowa Wieś (Minoga),,50.2350836888551,19.8908624053001,,,
949,689,Minoga Kościół,,50.2413616815251,19.8991946876049,,,
163,690,Minoga,,50.244453026889,19.9004459532001,,,
164,691,Barbarka Poręba Laskowska,,50.2537599818235,19.9058049917221,,,
165,692,Barbarka,,50.2582406919082,19.8989413153113,,,
166,693,Gołyszyn Podgaje,,50.2635471130751,19.9073585484482,,,
167,694,Gołyszyn Remiza,,50.2734540982835,19.912623167038,,,
168,695,Wysocice Centrum,,50.2843967067447,19.9222362041473,,,
1973,2771,Wysocice Kolonia,,50.2906763943687,19.9146856331068,,,
169,696,Ściborzyce I,,50.2973453771762,19.9034554294457,,,
170,697,Ściborzyce II,,50.3005045168684,19.8893956060431,,,
171,698,Małyszyce,,50.3020990695373,19.8819855476188,,,
172,699,Imbramowice Dolne,,50.3031659677495,19.8698423153162,,,
1974,2769,Imbramowice Cmentarz Stary,,50.3073473326899,19.8554069557135,,,
173,700,Imbramowice Górne,,50.310186251656,19.8454075017399,,,
174,701,Glanów I,,50.3150833737853,19.8321268624417,,,
175,702,Glanów II,,50.3163319098334,19.8246966490221,,,
176,703,Glanów III,,50.3162173753526,19.8201335111002,,,
177,704,Glanów IV,,50.3161790662904,19.8165259406878,,,
178,705,Glanów V,,50.3165858134157,19.8090057165318,,,
1975,711,Porąbka Skrzyżowanie,,50.3215884826822,19.7940466133659,,,
188,715,Trzyciąż ul. Krakowska,,50.3097586607477,19.7668075561523,,,
189,716,Trzyciąż ul. Południowa,,50.3092516226883,19.7659975290298,,,
190,752,Jangrot III,,50.3060396895009,19.7554138795535,,,
191,718,Jangrot II,,50.3085128640138,19.7445125773039,,,
192,719,Jangrot I,,50.3095688820103,19.7283508035126,,,
194,720,Michałówka III,,50.3066208584654,19.708574179369,,,
195,721,Michałówka II,,50.3054076365851,19.6976257943203,,,
196,722,Michałówka I,,50.308039534796,19.6881434088258,,,
197,723,Michałówka,,50.3108104048888,19.6794962882996,,,
198,724,Braciejówka I,,50.3057171325487,19.6730354493898,,,
954,725,Braciejówka Szkoła,,50.3066683853969,19.6687889099121,,,
199,726,Braciejówka,,50.307973725758,19.6618044376373,,,
1976,2767,Braciejówka Cmentarz,,50.3075904773114,19.6555341303806,,,
200,727,Troks III,,50.3055920884891,19.6510651920883,,,
201,728,Troks Szkoła,,50.3028229348224,19.6453028863597,,,
202,729,Troks I,,50.3012740898939,19.6308581962743,,,
1977,2765,Troks,,50.304709818292,19.6110722348405,,,
203,730,Rabsztyn,,50.2988732844881,19.5960366725922,,,
1978,2763,Rabsztyn Ogródki Działkowe,,50.2970786427337,19.588112882754,,,
204,731,Sikorka Wzgórze,,50.2899438080644,19.5770665917113,,,
1979,2761,Olkusz Rabsztyńska Wulkanizacja,,50.284182584102,19.5692391653236,,,
205,732,Olkusz Skrzyżowanie PKO,,50.2806551798688,19.566288292408,,,
206,733,Olkusz Os. Słowiki,,50.2776675745891,19.5791119337082,,,
45,655,Olkusz Wiadukt,,50.2741843694666,19.5808017253876,,,
46,600,Olkusz Dworzec PKP,,50.2749249147207,19.575480222702,,,
1288,2567,Zabłędza I,,49.92896783,21.0297587,,,
1289,2572,Zabłędza,,49.92516899,21.03572091,,,
1290,2583,Zabłędza Szkoła,,49.91769633,21.04776184,,,
1291,2595,Zabłędza Karwodrza,,49.91445395,21.05656266,,,
1292,2597,Tuchów Klasztor,,49.90218007,21.05744557,,,
1293,2592,Tuchów ul. Kolejowa,,49.8927302494686,21.0539084672928,,,
1294,2587,Dąbrówka Tuchowska Burzyn,,49.88167495,21.05152192,,,
1295,2581,Dąbrówka Tuchowska Szkoła,,49.87384292,21.0457522,,,
1296,2573,Dąbrówka Tuchowska CPN,,49.86842942,21.03666095,,,
1297,2564,Siedliska I,,49.86365424,21.02828029,,,
1298,2563,Siedliska,,49.86204884,21.01982051,,,
1299,2553,Siedliska Osiedle,,49.85649099,21.01312193,,,
1300,2542,Chojnik I,,49.8521447502216,20.9983384609222,,,
1301,2527,Chojnik II,,49.85268029,20.98728446,,,
2446,2836,Gromnik Granica,,49.8416167429384,20.9749249744357,,,
2447,2837,Gromnik Rondo,,49.8385481278529,20.9622541652826,,,
1302,2513,Gromnik Granica,,49.84121176,20.97690627,,,
1303,2516,Golanka II,,49.83723449,20.98413325,,,
1304,2539,Golanka,,49.83414481,20.99425287,,,
1305,2547,Rzepiennik Marciszewski Dom Ludowy,,49.83051799,21.00383019,,,
1306,2549,Rzepiennik Marciszewski,,49.82308839,21.00793523,,,
1307,2558,Rzepiennik Strzyżewski,,49.81361014,21.01468569,,,
1308,2571,Rzepiennik Strzyżewski Szkoła,,49.80643348,21.03563865,,,
1309,2584,Rzepiennik Strzyżewski Urząd Gminy,,49.7985074705921,21.0488390922546,,,
1310,2586,Rzepiennik Biskupi Skrzyżowanie,,49.79148429,21.05151996,,,
1311,2600,Turza Młynek,,49.77724652,21.05891811,,,
1312,2602,Turza Kościół,,49.76615056,21.06065624,,,
1313,2608,Turza Pańskie Pola,,49.761904228571,21.0675930976868,,,
1314,2615,Turza Granica,,49.7531017495357,21.0742771625519,,,
1315,2617,Moszczenica Wiatrak,,49.7491089173784,21.079705953598,,,
1316,2620,Moszczenica Kuklówka,,49.74196755,21.08328108,,,
1317,2626,Moszczenica II,,49.73685792,21.09111986,,,
1318,2629,Moszczenica OSP,,49.73341594,21.09547834,,,
1319,2633,Moszczenica Kościół Pętla,,49.7258004415757,21.1028534173965,,,
1320,2634,Moszczenica I,,49.71600327,21.11282134,,,
1321,2639,Moszczenica Skrzyżowanie,,49.70288337,21.11849121,,,
1322,2642,Mszanka PKP,,49.69488587,21.12449629,,,
1323,2649,Mszanka,,49.68813683,21.13131098,,,
1324,2660,Stróżówka Cmentarz,,49.68059068,21.13819181,,,
1325,2663,Gorlice Stróżówka,,49.67295006,21.14048379,,,
1326,2666,Gorlice Kogutek,,49.66512027,21.14360694,,,
1327,2681,Gorlice Stawiska,,49.66138641,21.15602733,,,
1328,2683,Gorlice ul. Legionów,,49.65714275,21.15901533,,,
1329,2682,Gorlice ul. Kościuszki,,49.65295614,21.15737311,,,
1330,2674,Gorlice Zawodzie II Cerkiew,,49.6475299,21.15084274,,,
1331,2668,Ropica Polska Tarasowa,,49.64227809,21.14518607,,,
1332,2664,Ropica Polska Kościół,,49.63858323,21.14076362,,,
1333,2654,Ropica Polska I,,49.63564175,21.13556327,,,
1334,2646,Ropica Polska Wodociągi,,49.63292249,21.13039377,,,
1335,2641,Szymbark Bystra,,49.62961036,21.12366448,,,
1336,2636,Szymbark Bielanka Skrzyżowanie,,49.62558759,21.11369514,,,
1337,2631,Szymbark Watra,,49.62474151,21.10071426,,,
1338,2627,Szymbark Szkoła,,49.62259602,21.09452926,,,
1339,2618,Szymbark Zimna Woda,,49.61935458,21.0824275,,,
1340,2604,Szymbark Łęgi,,49.61445767,21.06653086,,,
1341,2594,Szymbark Granica,,49.61312562,21.0557784,,,
1342,2574,Ropa Skrzyżowanie,,49.60525117,21.03812699,,,
1343,2576,Ropa Szkoła I,,49.59880163,21.04368828,,,
1344,2580,Ropa,,49.58635078,21.04530913,,,
1345,2590,Ropa Orlik,,49.58225175,21.05298569,,,
1346,2599,Ropa Szkoła II,,49.57848035,21.05847445,,,
1347,2624,Łosie (Pętla),,49.57211744,21.0877495,,,
1348,2606,Ropa Most,,49.5721316902553,21.067453622818,,,
1349,2607,Ropa Wola,,49.56274811,21.06761354,,,
1350,2612,Klimkówka Zapora,,49.55431988,21.0729513,,,
1351,2622,Klimkówka Stanica Wodna,,49.5458877347751,21.0837507247925,,,
1352,2653,Uście Gorlickie Spichlerz,,49.52531859,21.13411075,,,
1353,2658,Uście Gorlickie,,49.52225707,21.13793971,,,
1354,2652,Uście Gorlickie Szkoła,,49.51825978,21.13398886,,,
1355,2644,Czarna Skrzyżowanie I,,49.50864637,21.12909147,,,
1356,2661,Uście Gorlickie I,,49.50220138,21.13871942,,,
1908,2671,Hańczowa I,,49.4943073433865,21.1458548311776,,,
1909,6071,Hańczowa Za Osuwiskiem,,49.4895662899179,21.1501892582622,,,
1910,2673,Hańczowa Dół,,49.4849802157854,21.1539865276168,,,
1911,2677,Hańczowa Łukacyn,,49.4809733686073,21.1559900722555,,,
1912,2680,Hańczowa Górna,,49.4751877186568,21.1584970089511,,,
1361,2689,Hańczowa Szkoła,,49.46984474,21.16076739,,,
1362,2687,Hańczowa Szafran,,49.46139155,21.1604121,,,
1363,2690,Hańczowa Obrzut,,49.45403127,21.16306723,,,
1364,2693,Wysowa I Kowal,,49.4468188787456,21.1705577373505,,,
1365,2694,Wysowa Niżna,,49.44182437,21.17329861,,,
1366,2697,Wysowa Rozlewnia,,49.43715149,21.17554166,,,
1367,2702,Wysowa Glinik,,49.43876434,21.18287172,,,
1368,2699,Wysowa Beskid,,49.44147864,21.18184376,,,
94,4275,Podłęże P+R Północ,,50.0185564485706,20.1697719097137,,,
95,4277,Podłęże PSZOK,,50.025046,20.17172,,,
96,4280,Podłęże Trefl,,50.025422,20.177929,,,
97,4282,Niepołomice Diesla MAN,,50.030466,20.178944,,,
98,4286,Niepołomice Rudolfa Diesla,,50.033863,20.189006,,,
99,4288,Niepołomice Wodna,,50.032413,20.192944,,,
100,4292,Niepołomice Płaszowska I,,50.030885,20.198196,,,
101,4296,Niepołomice Kościuszki,,50.029074,20.206377,,,
86,4304,Niepołomice Rynek,,50.033328,20.216375,,,
85,4305,Niepołomice Dworzec,,50.038009978999,20.2163136005402,,,
102,4307,Niepołomice Batorego,,50.040828,20.223464,,,
103,4313,Niepołomice Grobla,,50.042114,20.229784,,,
104,4327,Niepołomice Jazy,,50.043655,20.240117,,,
105,4330,Niepołomice Słoneczna,,50.046779,20.246149,,,
106,4333,Wola Batorska Ruskie,,50.053269,20.259075,,,
107,4335,Wola Batorska Żwirownia,,50.052497,20.267021,,,
108,4336,Wola Batorska Kościół,,50.052883,20.276868,,,
109,4339,Wola Batorska Cmentarz,,50.052634,20.290549,,,
110,4341,Wola Batorska Borek,,50.054535,20.296812,,,
111,4344,Wola Batorska Mikoniowiec,,50.058852,20.29883,,,
112,4346,Wola Batorska Zamoglice,,50.064333,20.302293,,,
113,4348,Zabierzów Bocheński Centrum,,50.067791,20.318904,,,
114,4352,Wola Zabierzowska Chałupki,,50.07011,20.334594,,,
115,4353,Chobot Kapliczka,,50.073611,20.346585,,,
116,4358,Chobot Leśniczówka,,50.081151,20.353779,,,
117,4371,Ispina Leśniczówka,,50.113906,20.378899,,,
118,4379,Ispina Przedszkole,,50.116645,20.38344,,,
119,4373,Ispina Most,,50.1176612913283,20.3837907314301,,,
120,4367,Nowe Brzesko (Partyzantów),,50.131275,20.372145,,,
121,4366,Szpitary II,,50.146667,20.364211,,,
122,4363,Szpitary I,,50.154162,20.362194,,,
123,4361,Szpitary,,50.157996,20.359579,,,
124,4360,Kowala Grębocin,,50.164512,20.358149,,,
125,4355,Kowala,,50.176596,20.348129,,,
126,4349,Jakubowice,,50.187707,20.322005,,,
285,4425,Proszowice Nowe Bloki,,50.1902379360523,20.3063526749611,,,
127,4426,Proszowice Szpital,,50.1864271861076,20.2980405092239,,,
128,4427,Proszowice ul. Kopernika,,50.1897897293281,20.2985340356827,,,
2716,3395,Proszowice ul. Kolejowa,,50.1915030777955,20.2965453537053,,,
2528,3122,Proszowice Mały Rynek,,50.1920068063123,20.2884607026457,,,
2529,3124,Proszowice Parcela,,50.1928265771013,20.2850783074067,,,
2530,3126,Proszowice P+R Kościuszki,,50.1956473151617,20.2758208337627,,,
1585,2403,Nowy Sącz MDA,,49.6171696976156,20.698416531086,,,
1583,2404,Nowy Sącz Aleja Batorego,,49.61225576,20.69910979,,,
2576,3202,Nowy Sącz Dworzec MPK ul. Kolejowa,,49.6072709974906,20.7007845651839,,,
2577,3195,Nowy Sącz Węgierska - ZUS,,49.6034803807313,20.6895504294271,,,
2578,3197,Nowy Sącz Węgierska - Piramowicza,,49.5972413294021,20.683354552215,,,
2579,3199,Nowy Sącz Węgierska - Dąbrówki,,49.5920871007404,20.6782321224029,,,
2580,3201,Nowy Sącz Węgierska - Galeria,,49.5862950556551,20.6735360791491,,,
2581,3203,Nowy Sącz Węgierska - Carbon,,49.5830476616684,20.6715324424369,,,
2582,3205,Nowy Sącz Węgierska - Szkoła,,49.5801307135785,20.6669050293738,,,
2583,3209,Nowy Sącz Węgierska - Winna Góra,,49.5761707153537,20.6633087407576,,,
2584,3207,Nowy Sącz Węgierska - Przystań,,49.5708616703487,20.6612473195929,,,
2585,3210,Stary Sącz Jana Pawła II - Przystań,,49.5665867904854,20.6530814090453,,,
2586,3212,Stary Sącz Jana Pawła II - Wiadukt,,49.5662165286601,20.6484830648508,,,
1708,2356,Stary Sącz Centrum Przesiadkowe,,49.5662522103383,20.6390619277954,,,
1726,2354,Stary Sącz Rynek,,49.56420582,20.63550468,,,
1727,2350,Stary Sącz ul. Piłsudskiego,,49.56586904,20.62587549,,,
1728,2348,Stary Sącz ul. Piłsudskiego II,,49.5631341,20.61702739,,,
1729,2346,Mostki Poczekaj,,49.55994482,20.60867131,,,
1730,2344,Mostki,,49.55553938,20.59967047,,,
1731,2342,Gołkowice Dolne I,,49.55103548,20.5931877,,,
1732,2340,Gołkowice Dolne RSP,,49.54708294,20.58297997,,,
1733,2338,Gołkowice Dolne Skrzyżowanie,,49.54711209,20.57622995,,,
1734,2336,Naszacowice Obwodnica,,49.55260394,20.57064002,,,
1735,2335,Olszanka I,,49.55392821,20.56456301,,,
1736,2333,Olszanka Dolna,,49.55488086,20.55464459,,,
1737,2331,Olszanka,,49.55561814,20.54698853,,,
1738,2329,Olszanka Szkoła,,49.55644593,20.54333957,,,
1739,2327,Olszana Cmentarz,,49.55902628,20.53212265,,,
1740,2325,Olszana I,,49.56484942,20.52494516,,,
1741,2324,Olszana Szkoła,,49.57001578,20.51932248,,,
1742,2320,Olszana Wolica,,49.57660011,20.50082175,,,
1743,2317,Czarny Potok - Wolica Kapliczka,,49.57694758,20.4922355,,,
1744,2310,Czarny Potok,,49.57947303,20.48307062,,,
1745,2308,Czarny Potok Jeżówka,,49.57543375,20.47355241,,,
1746,2304,Łącko Wolaki,,49.57127885,20.45984787,,,
1747,2298,Łącko Pożogi,,49.56329246,20.44342858,,,
1685,2297,Łącko Dworzec Autobusowy,,49.5565199412545,20.4386258125305,,,
1748,2292,Czerniec,,49.55314788,20.42439782,,,
1749,2288,Zabrzeż Obłazy,,49.5489878,20.40761971,,,
1750,2284,Zabrzeż Skrzyżowanie,,49.5435682,20.40441582,,,
1751,2286,Zabrzeż Kościół,,49.53888869,20.40484695,,,
1752,2291,Zabrzeż Wietrznice,,49.51962859,20.41740375,,,
1753,2283,Tylmanowa Rzeka,,49.51700897,20.39975789,,,
1754,2280,Ochotnica Dolna Ligasy,,49.52174509,20.38006357,,,
1755,2278,Ochotnica Dolna Brysiówka,,49.5236335,20.37264208,,,
1756,2277,Ochotnica Dolna Rola,,49.52822966,20.36131255,,,
2587,2838,Ochotnica Dolna Gardonie,,49.5266875281416,20.3525766232287,,,
1757,2272,Ochotnica Dolna Kościół,,49.52661055,20.33221936,,,
1758,2265,Ochotnica Dolna Urząd Gminy,,49.52537324,20.32021561,,,
1759,2261,Ochotnica Dolna Ośrodek Zdrowia,,49.52440601,20.30922687,,,
1760,2255,Ochotnica Dolna Skrodne,,49.51880551,20.28679047,,,
2588,2840,Ochotnica Górna Piszczkówka,,49.5192852556513,20.2756780529533,,,
1761,2250,Ochotnica Górna Gronie,,49.51743485,20.26553731,,,
1670,2245,Ochotnica Górna,,49.51223805,20.24863132,,,
1762,2244,Ochotnica Górna Białówka,,49.50463654,20.23310185,,,
1763,2242,Ochotnica Górna Szpuntówka,,49.50392552,20.22604937,,,
1764,2239,Ochotnica Górna Czepiele,,49.50648999,20.21401719,,,
1765,2238,Ochotnica Górna Ustrzyk,,49.50671343,20.20249581,,,
1766,2235,Ochotnica Górna Stalmachówka,,49.50784538,20.19041139,,,
1767,2225,Ochotnica Górna Przełęcz I,,49.50884436,20.18263576,,,
1768,2233,Ochotnica Górna Przełęcz,,49.5035335,20.18761156,,,
1769,2229,Knurów Nad Sadami,,49.48277781,20.1847087,,,
1770,2231,Knurów Przy Krzyżu,,49.4768875390746,20.1866376399994,,,
1771,2228,Knurów,,49.47246039,20.18449426,,,
1772,2223,Harklowa,,49.47270518,20.16891188,,,
1773,2221,Harklowa Grapka,,49.46962389,20.14897474,,,
1774,2206,Łopuszna,,49.47178455,20.12372092,,,
1775,2185,Ostrowsko,,49.47617599,20.09795701,,,
1776,2178,Waksmund I,,49.47912508,20.08551038,,,
1777,2176,Waksmund II Kościół,,49.48087969,20.07820519,,,
1778,2172,Waksmund III,,49.48229316,20.07218452,,,
1779,2162,Nowy Targ Rondo,,49.47635026,20.0495769,,,
1780,2160,Nowy Targ al. Tysiąclecia III Hala Gorce,,49.47758418,20.0344296,,,
1649,2158,Nowy Targ D.A.,,49.4780935266064,20.0228726863861,,,
1781,2155,Nowy Targ PKP ul. Kolejowa,,49.47623607,20.01430841,,,
1647,2157,Nowy Targ Dworzec Kolejowy,,49.47390175,20.01537656,,,
377,204,Dobczyce Witosa (pętla),,49.880065,20.093833,,,
378,22,Dobczyce Podgórska,,49.880361,20.086833,,,
379,24,Dobczyce Skrzyżowanie,,49.887268,20.079991,,,
380,31,Dobczyce,,49.893102,20.093204,,,
381,34,Dziekanowice Skrzyżowanie,,49.896758,20.100215,,,
382,203,Dziekanowice,,49.9038257691445,20.0982427597046,,,
383,52,Rudnik,,49.910323,20.097569,,,
384,60,Sieraków I,,49.915172,20.092039,,,
385,62,Sieraków II,,49.918713,20.085807,,,
386,72,Sieraków III,,49.921777,20.080284,,,
387,82,Jankówka,,49.926835,20.072339,,,
388,109,Raciborsko Szkoła,,49.93511,20.064143,,,
389,120,Raciborsko Podedwór,,49.937125,20.072437,,,
390,110,Raciborsko Szkoła,,49.935287,20.063542,,,
391,112,Raciborsko Lipowa,,49.935934,20.059735,,,
392,128,Raciborsko Sieprawówka,,49.939246,20.057192,,,
393,150,Koźmice Małe,,49.945851,20.058045,,,
394,158,Pawlikowice II,,49.953903,20.054955,,,
395,166,Pawlikowice III,,49.959274,20.053959,,,
396,192,Rożnowa II,,49.967059,20.058483,,,
333,201,Rożnowa Centrum,,49.9717702697731,20.061040520668,,,
334,197,Wieliczka Chopina,,49.9814277202454,20.0682637095451,,,
335,199,Wieliczka Mediateka,,49.9841411171269,20.0647285580635,,,
336,200,Wieliczka Centrum Dworzec,,49.985311,20.056209,,,
442,10,Łapanów Rynek,,49.864656,20.291675,,,
443,13,Łapanów Krakowska,,49.869041,20.274057,,,
444,16,Zagórzany Wymysłów,,49.873166,20.257665,,,
445,19,Zagórzany Szkoła,,49.878008,20.233002,,,
446,28,Podolany,,49.890936,20.229845,,,
447,32,Podolany Skrzyżowanie,,49.893595,20.228674,,,
2717,3407,Gdów Rondo Kuliga,,49.896801955367,20.2207271754742,,,
448,202,Zręczyce Skrzyżowanie na Stadniki,,49.899146,20.211514,,,
449,4390,Gdów Łapanowska,,49.9046549798773,20.2058529853821,,,
433,50,Gdów Pętla,,49.908621,20.199423,,,
450,46,Gdów,,49.907715,20.180044,,,
451,43,Fałkowice,,49.906486,20.167686,,,
452,38,Kunice,,49.90257,20.145962,,,
2718,3408,Kunice II,,49.913752,20.141735,,,
453,69,Hucisko I,,49.92007,20.13501,,,
454,73,Hucisko II,,49.9251,20.129721,,,
455,89,Dobranowice IV,,49.931201,20.124527,,,
456,126,Dobranowice III,,49.938285,20.121355,,,
457,135,Dobranowice Szkoła,,49.9419063788294,20.1180857419968,,,
458,141,Dobranowice I,,49.9437775141722,20.1118469238281,,,
459,143,Dobranowice V,,49.9439432200722,20.1016545295715,,,
460,145,Grajów Przymiarki,,49.9438776282216,20.0924813747406,,,
461,149,Chorągwica Maki,,49.9441192819662,20.0819724798203,,,
462,155,Chorągwica Za Górą,,49.9490245909049,20.0860011577606,,,
463,157,Chorągwica Krzewiny,,49.9532287438325,20.0891661643982,,,
464,162,Chorągwica Pod Strażnicą,,49.9559498698522,20.0900031719243,,,
465,164,Chorągwica Centrum,,49.958530009516,20.0869131088257,,,
466,168,Mietniów Amigówka,,49.9612,20.080954,,,
467,172,Mietniów Pod Aniołem,,49.963068,20.076161,,,
468,177,Mietniów Pod Masztem,,49.966748,20.069034,,,
469,179,Mietniów I,,49.968861,20.062904,,,
1587,2409,Nowy Sącz Rejtana,,49.615316,20.70478477,,,
1588,2410,Nowy Sącz Kilińskiego - Stadion,,49.61981963,20.70571279,,,
1589,2399,Nowy Sącz ul. Bulwar Narwiku - Most (II),,49.6245043185984,20.6954848766327,,,
1590,2393,Nowy Sącz ul. Tarnowska,,49.6353485,20.69267969,,,
1591,2391,Nowy Sącz ul. Tarnowska - Zabełcze,,49.64704236,20.69074629,,,
1592,2389,Nowy Sącz ul. Tarnowska - Galeria Szubryt,,49.6559445,20.68990795,,,
1593,2387,Wielopole,,49.66063141,20.68929404,,,
1594,2386,Wielogłowy,,49.66830507,20.68738919,,,
1595,2381,Dąbrowa,,49.67480663,20.68322881,,,
1596,2373,Dąbrowa Szpital,,49.68094691,20.67804545,,,
1597,2377,Dąbrowa Góry,,49.69020138,20.68042208,,,
1598,2371,Zbyszyce,,49.69459484,20.67756506,,,
1599,2383,Wola Kurowska,,49.70251366,20.68505635,,,
1600,2380,Sienna II,,49.70690797,20.68311533,,,
1601,2394,Sienna I,,49.71373158,20.69298414,,,
1602,2413,Lipie Ośrodek Wypoczynkowy,,49.72230014,20.70645319,,,
1603,2417,Lipie,,49.72672721,20.71947001,,,
1604,2420,Lipie I,,49.73500654,20.72585444,,,
1605,2421,Gródek nad Dunajcem Koszarka,,49.73945504,20.72744499,,,
1606,2423,Gródek nad Dunajcem,,49.7463282,20.73180225,,,
1607,2425,Bartkowa,,49.75612843,20.74789313,,,
1608,2428,Bartkowa Posadowa,,49.75750135,20.75776608,,,
1609,2430,Podole Górowa Szkoła,,49.75527343,20.77555919,,,
1610,2433,Bartkowa Posadowa Góra,,49.76796057,20.77995825,,,
1611,2432,Bujne,,49.77783015,20.77748279,,,
1612,2436,Paleśnica Granica,,49.78576477,20.79182568,,,
1613,2451,Paleśnica I,,49.79439763,20.80065159,,,
1614,2448,Paleśnica,,49.79775441,20.79826497,,,
1615,2444,Borowa,,49.80821536,20.79734707,,,
1616,2453,Bieśnik,,49.82252947,20.8031431,,,
1617,2457,Bieśnik Granica,,49.8347168,20.8117166,,,
2309,2873,Zakliczyn ul. Ruchu Oporu - Zielona,,49.8461868546636,20.807918121361,,,
1618,2446,Zakliczyn ul. Ruchu Oporu – Szkoła,,49.8410803639645,20.7976511614595,,,
1619,2438,Zakliczyn Grabina III,,49.84498091,20.79445508,,,
1620,2440,Zakliczyn Grabina II,,49.84866318,20.79467913,,,
1621,2443,Zakliczyn Grabina I,,49.85126005,20.79632834,,,
1622,2442,Wesołów Granica,,49.85373992,20.79627257,,,
1623,2454,Zakliczyn Rynek,,49.8558904578005,20.8073598146439,,,
1624,2455,Roztoka k/Zakliczyna,,49.87264398,20.81139154,,,
1625,2474,Olszyny,,49.88151517,20.83219799,,,
1626,2465,Olszyny Kościół,,49.88978948,20.82393928,,,
1627,2459,Olszyny k/Wojnicza,,49.89451255,20.81694205,,,
1628,2462,Sukmanie Sklep,,49.90791009,20.81890333,,,
1629,2464,Sukmanie,,49.91779087,20.82223297,,,
1630,2472,Wielka Wieś I,,49.92232174,20.82871599,,,
1631,2467,Wielka Wieś,,49.93458363,20.82571437,,,
1632,2471,Wojnicz Skrzyżowanie Więckowice,,49.94949243,20.82828541,,,
1633,2476,Wojnicz ul. Jagiellońska (Kościół),,49.95553647,20.83657349,,,
1787,1166,Wojnicz Rynek,,49.9578794624299,20.838543176651,,,
1634,2479,Wojnicz Cmentarz,,49.96028057,20.84851904,,,
1635,2485,Łukanowice,,49.96558055,20.86141751,,,
1636,2487,Mikołajowice,,49.96942951,20.87286449,,,
1637,2489,Zgłobice Dunajec,,49.97097648,20.88000721,,,
2132,5192,Zgłobice - ul. Krakowska - Hotel Dunajec,,49.9725655356215,20.8869758248329,,,
1638,2491,Zgłobice ul. Krakowska - Okrężna,,49.97602363,20.89889891,,,
1639,2493,Zgłobice ul. Krakowska - Salon VW,,49.97975702,20.9078544,,,
1640,2494,Zbylitowska Góra ul. Krakowska - Cichociemnych,,49.98258071,20.91505256,,,
1641,2497,Tarnów ul. Krakowska 94,,49.98685014,20.92481437,,,
1642,2499,Tarnów ul. Krakowska - Liściasta,,49.99309606,20.93957433,,,
2310,3263,Andrychów D.A.,,49.8556569936547,19.3509247569633,,,
2311,3289,Andrychów Daszyńskiego,,49.8504147479255,19.3441240912982,,,
2312,3287,Andrychów ul. 1 Maja,,49.8530835232305,19.3387390982414,,,
2313,3264,Andrychów ul. Batorego,,49.8558032299109,19.3381019198211,,,
2314,3267,Andrychów Przedmieście,,49.8629573685346,19.3391443750572,,,
2315,3268,Wieprz Granica,,49.8709022716503,19.3415292965336,,,
2316,3270,Wieprz Spółdzielnia,,49.8765143916899,19.3445915076132,,,
2317,3272,Wieprz Przedszkole,,49.8858077244881,19.3534564799836,,,
2318,3274,Wieprz Mleczarnia,,49.8923974055656,19.3578264666761,,,
2319,3276,Wieprz Poczta,,49.9003117724167,19.36632373942,,,
2320,3278,Wieprz Szkoła,,49.9082740571898,19.3712188594645,,,
2321,3280,Wieprz Dolny,,49.917425992172,19.3753975052736,,,
2322,3282,Gierałtowice Stawy,,49.9222372980494,19.3746148934171,,,
1028,2002,Gierałtowice Przedszkole,,49.93380964,19.38721414,,,
1029,2003,Gierałtowice Skrzyżowanie,,49.94019644,19.38723667,,,
1030,2007,Gierałtowice Pod Odrobiną,,49.94546633,19.39321324,,,
1031,2005,Gierałtowice Zbójecka,,49.95372583,19.389985,,,
1032,2009,Gierałtowice Granica,,49.95524796,19.40348064,,,
1033,2017,Łowiczki Bugaj II,,49.96521189,19.4120484,,,
1034,2014,Łowiczki,,49.974926,19.41188532,,,
1035,2012,Łowiczki Szkoła,,49.97906875,19.40755592,,,
1036,2011,Zator Granica,,49.9848137295799,19.4052672386169,,,
1037,2019,Zator ul. Bugajska,,49.98940955,19.42006681,,,
1038,2023,Zator ul. Słowackiego,,49.99607997,19.4325978,,,
1014,2021,Zator Podlipki,,49.99813718,19.43011241,,,
1015,2020,Zator PKP,,50.0018866,19.42939841,,,
2323,3284,Zator Energylandia Rondo,,49.9982091320857,19.4220380150618,,,
1016,2022,Zator Podlipki,,49.9980402,19.43073507,,,
1013,2025,Zator Rynek,,49.99614566,19.43878836,,,
1039,2026,Zator Blich,,49.9985343,19.43930843,,,
1040,2028,Zator os. Morysina I,,50.00220813,19.4493844,,,
1041,2032,Zator os. Morysina II,,50.00377696,19.45417793,,,
1042,2030,Smolice Żwirownia,,50.0187425781291,19.4526028633118,,,
1043,2034,Smolice Kapliczka,,50.02521619,19.45589812,,,
1044,2036,Smolice Szkoła,,50.0280276,19.45783688,,,
25,629,Krzeszowice Dworzec PKP,,50.1311293997219,19.6337994933128,,,
24,628,Krzeszowice Dworzec Komunikacyjny,,50.1315867536171,19.637071788311,,,
26,631,Krzeszowice Rondo Jana Pawła II,,50.1351938503156,19.6317100524902,,,
27,632,Krzeszowice Grunwaldzka UM,,50.1369990158702,19.629875421524,,,
28,633,Krzeszowice Osiedle Czatkowice,,50.1497088913712,19.6343332529068,,,
29,634,Kopalnia Wapienia Czatkowice,,50.1551775333294,19.6302133798599,,,
30,635,Czerna Skrzyżowanie,,50.1617933758778,19.6308383345604,,,
31,636,Czerna Klasztor,,50.1660184439949,19.6343305706978,,,
32,4382,Paczółtowice Dolina Eliaszówki,,50.1789335990554,19.6377691626549,,,
2253,2834,Gorenice,,50.2056283083961,19.6361805462592,,,
33,644,Gorenice Wzniesienie,,50.2068365005716,19.6242084945195,,,
34,645,Gorenice Dołek,,50.2077260816655,19.617615511755,,,
35,646,Gorenice Szkoła,,50.2085893315053,19.6120627799701,,,
1968,2789,Gorenice Remiza,,50.2082240520958,19.6081806401359,,,
36,647,Gorenice Kościół,,50.2068666941356,19.6028736233711,,,
1969,2790,Gorenice Wilcze Doły,,50.2245282582559,19.5869652846432,,,
37,648,Witeradów IV,,50.2422575350604,19.5800693933544,,,
1970,2791,Witeradów,,50.2463066511799,19.5790412923037,,,
38,649,Witeradów III,,50.2479750242193,19.5782099671528,,,
39,650,Witeradów II,,50.2533640738887,19.5768019853589,,,
40,651,Witeradów I,,50.2589522175826,19.5767966989014,,,
812,2057,Olkusz Ks. Gajewskiego,,50.2625007,19.57567036,,,
41,652,Olkusz Kościół,,50.265735852888,19.5743483304977,,,
42,653,Olkusz Biema,,50.2695111261051,19.5734256505966,,,
813,2056,Olkusz Szpital,,50.26981975,19.56947043,,,
814,2047,Olkusz Basen,,50.27395126,19.56137822,,,
815,2048,Olkusz Dworek Machnickich,,50.27716374,19.56183706,,,
816,2052,Olkusz Skarbek,,50.27680708,19.56631593,,,
207,4388,Olkusz Dworzec PKP (pętla),,50.2746952097863,19.5735061168671,,,
701,399,Bochnia Dworzec PKP,,49.976952,20.431568,,,
702,388,Bochnia ul. Regis Planty,,49.971247,20.427629,,,
703,4218,Bochnia pl. Gen. Kazimierza Pułaskiego,,49.969952,20.43248,,,
704,385,Bochnia ul. Kazimierza W. Poczta,,49.9669224865867,20.4255312681198,,,
705,384,Bochnia ul. Kazimierza W. Szkoła,,49.964944,20.423035,,,
706,381,Bochnia ul. Wiśnicka,,49.960557,20.423897,,,
707,379,Bochnia Góra,,49.953392,20.43159,,,
708,377,Bochnia Rydla,,49.950533,20.434254,,,
709,375,Bochnia Kurów,,49.944445,20.440133,,,
710,373,Kopaliny POM,,49.934758,20.444823,,,
711,371,Kopaliny,,49.93195,20.447054,,,
712,369,Nowy Wiśnicz CPN,,49.926838,20.452832,,,
713,367,Nowy Wiśnicz Liceum,,49.918113,20.459194,,,
714,366,Nowy Wiśnicz Centrum,,49.916315,20.46125,,,
715,363,Nowy Wiśnicz ul. Limanowska,,49.906188,20.456929,,,
716,361,Leksandrowa,,49.8982,20.452604,,,
717,360,Królówka Sośliny,,49.890816,20.449616,,,
718,357,Połom Duży I,,49.884806,20.450352,,,
719,355,Połom Duży II,,49.876504,20.458816,,,
720,353,Muchówka I,,49.869032,20.452225,,,
721,352,Muchówka II,,49.8593107995617,20.4532492160797,,,
722,349,Łąkta Górna,,49.834587,20.433099,,,
723,347,Łąkta Górna Przetwórnia,,49.829361,20.426686,,,
724,345,Łąkta Górna Wąsówka Niżna,,49.82218,20.419726,,,
725,344,Żegocina Szkoła,,49.814561,20.420936,,,
726,341,Żegocina Centrum,,49.80348,20.418404,,,
727,339,Żegocina,,49.792208,20.427959,,,
728,337,Rozdziele Górne,,49.789216,20.441012,,,
729,335,Laskowa Górna,,49.784125,20.431578,,,
1925,4527,Laskowa Nagórze,,49.7715435355562,20.4276180267334,,,
1926,4526,Laskowa,,49.7675730107784,20.4380464553833,,,
730,2302,Laskowa Centrum,,49.7610930145581,20.4505778048926,,,
731,2295,Młynne Podlesie,,49.7563110273674,20.4289269447327,,,
732,327,Młynne Młyn,,49.753368,20.415016,,,
733,325,Młynne Szkoła,,49.747314,20.407205,,,
734,324,Łososina Górna,,49.742949,20.407699,,,
735,321,Limanowa ul. Tarnowska I,,49.736061,20.401367,,,
736,319,Limanowa ul. Tarnowska II,,49.729078,20.398986,,,
737,317,Limanowa ul. Witosa,,49.723,20.403857,,,
630,314,Limanowa Sowliny Osiedle,,49.7190758960042,20.4099583625793,,,
631,313,Limanowa Szpital,,49.7176261298002,20.4126888513565,,,
632,310,Limanowa ul. Słoneczna,,49.714583,20.418692,,,
633,308,Limanowa PKP,,49.71205,20.422043,,,
634,306,Limanowa Kopernika,,49.708005,20.425467,,,
556,305,Limanowa Dworzec PKS,,49.7064227987202,20.4283395409584,,,
635,4215,Limanowa Sąd,,49.704138,20.41763,,,
636,4500,Limanowa Zygmunta Augusta,,49.6989140194809,20.4209876060486,,,
337,198,Wieliczka Mediateka,,49.9843480758065,20.0635215640068,,,
338,196,Wieliczka Chopina,,49.981366,20.06854,,,
339,188,Rożnowa Centrum,,49.972064,20.061251,,,
340,4391,Rożnowa III,,49.972231,20.059873,,,
341,176,Rożnowa II,,49.9737368468533,20.0580203533173,,,
342,193,Siercza,,49.9736678455092,20.0516045093536,,,
343,189,Siercza II,,49.9726190128968,20.0441747903824,,,
344,190,Siercza III,,49.97058,20.042648,,,
345,174,Siercza IV,,49.964633,20.041718,,,
346,171,Kopce II,,49.961787,20.039568,,,
347,160,Koźmice Wielkie Skrzyżowanie,,49.955009,20.034417,,,
348,153,Koźmice Wielkie Centrum,,49.948108,20.037096,,,
349,118,Koźmice Wielkie Spławy,,49.9419892350688,20.0366967916489,,,
350,134,Koźmice Wielkie Podgorzków,,49.9366481685244,20.031321644783,,,
351,85,Gorzków Kościół,,49.9286302785736,20.0291168689728,,,
352,77,Gorzków OSP,,49.925461,20.028435,,,
353,64,Gorzków Kapliczka,,49.919337,20.028644,,,
318,53,Byszyce Pętla,,49.9104521467161,20.0182968378067,,,
355,58,Byszyce V,,49.9150776340282,20.0160652399063,,,
356,66,Byszyce IV,,49.9199168213292,20.0146758556366,,,
357,80,Byszyce III Kościół,,49.9257950378879,20.0140750408173,,,
2234,2825,Byszyce III,,49.9270611494226,20.0133383261625,,,
2235,83,Byszyce II,,49.9298854993317,20.0036969390404,,,
359,96,Rzeszotary Panciawa,,49.932139,19.993431,,,
360,92,Rzeszotary Zalesie,,49.931772,19.980834,,,
361,94,Świątniki Górne Piasna Górka,,49.931981,19.973782,,,
362,99,Świątniki Górne Skrzyżowanie,,49.934256,19.967313,,,
363,107,Świątniki Górne Bielowicza Szkoła,,49.93515,19.96314,,,
364,103,Świątniki Górne Centrum,,49.934236,19.953194,,,
365,104,Świątniki Górne Urząd Miasta i Gminy,,49.934507,19.945485,,,
366,108,Świątniki Górne Buk,,49.935261,19.934523,,,
2764,3528,Olszowice Krzyżówka,,49.93118727,19.93385704,,,
367,75,Olszowice Centrum,,49.925135,19.941177,,,
368,68,Siepraw II,,49.920031,19.94619,,,
369,55,Siepraw I,,49.91354,19.94959,,,
370,47,Siepraw skrzyżowanie,,49.907846,19.960462,,,
1916,40,Siepraw MAAN,,49.9041747303982,19.9506756663322,,,
1917,6066,Krzyszkowice Od Sieprawia,,49.8985150274744,19.9459737539291,,,
2694,3415,Krzyszkowice Gajówki,,49.892917,19.939306,,,
372,26,Krzyszkowice,,49.8885,19.93525,,,
2695,3413,Zawada II,,49.883167,19.941,,,
2696,3411,Zawada I,,49.877417,19.945778,,,
373,15,Zawada Folwark,,49.873158,19.947408,,,
374,8,Polanka II,,49.860996,19.940696,,,
375,6,Polanka I,,49.856764,19.938734,,,
376,4,Myślenice Cmentarz,,49.846598,19.940805,,,
2613,3065,Staniątki Wiadukt,,50.0164165855499,20.1806236260271,,,
2614,3068,Niepołomice Wielicka,,50.0194291724537,20.1923073283804,,,
2615,3070,Niepołomice Boryczów,,50.0234134938414,20.1987124435159,,,
2794,3533,Niepołomice Dworzec,,50.0391090664114,20.2154539525509,,,
2616,3073,Niepołomice Kolejowa,,50.0442020534995,20.2121905931433,,,
2617,3075,Wolica Most,,50.0517121596258,20.2074616535081,,,
2618,3077,Betonowa,,50.0564271240771,20.2022800046505,,,
2619,3079,Ks. Luzara,,50.0633111639526,20.1940466272864,,,
2620,3081,Zakępie,,50.06809927003,20.1896692575308,,,
2621,3083,Szlifierska,,50.0724195451863,20.1897435383803,,,
2622,3085,Cło,,50.0801675094699,20.1872220141186,,,
2623,3087,Pobiednik Wielki Komora,,50.0824272465614,20.1946318173552,,,
2624,3089,Pobiednik Wielki I,,50.0835453262566,20.2097112383921,,,
2625,3091,Pobiednik Wielki II,,50.0846421313252,20.2184500287016,,,
2626,3093,Zofipole,,50.0863211537253,20.2317147503358,,,
2627,3095,Igołomia II,,50.0910211923922,20.2443186494733,,,
2628,3097,Igołomia I,,50.095188907163,20.2557720944247,,,
2629,3099,Złotniki,,50.1021887747083,20.2727682878008,,,
2630,3101,Wawrzeńczyce UG,,50.1068024022721,20.297984169437,,,
2631,3103,Wawrzeńczyce Bank,,50.1109812539689,20.297465092051,,,
2632,3105,Stręgoborzyce Skrzyżowanie,,50.1194711847783,20.2973399909262,,,
2633,3107,Stręgoborzyce Sklep,,50.1256278452335,20.2960800443844,,,
2634,3109,Stręgoborzyce,,50.1323335381541,20.2939659174938,,,
2635,3111,Rudno Górne Skrzyżowanie,,50.143736713887,20.2889869608943,,,
2636,3113,Rudno Górne,,50.1582690343176,20.2800156535116,,,
2637,3115,Łaganów II (skrz. do Więckowic),,50.1647785534192,20.2829330831464,,,
2638,3117,Łaganów I Most,,50.1733140203214,20.2808827540202,,,
2639,3119,Łaganów III (Cavita),,50.1778816196701,20.2837269510671,,,
1527,2500,Tarnów ul. Krakowska - Czerwona,,49.9960227,20.94642134,,,
1528,2498,Tarnów ul. Krakowska - Czarna Droga,,49.99290054,20.93886575,,,
1529,2496,Zbylitowska Góra ul. Krakowska - Spacerowa,,49.98619177,20.92259581,,,
1530,2495,Zbylitowska Góra ul. Krakowska - Cichociemnych,,49.98322348,20.91509416,,,
1531,2492,Zgłobice ul. Krakowska - Zbylitowskich,,49.97917858,20.9059149,,,
2119,5187,Zbylitowska Góra - Cmentarz,,49.98243,20.90329,,,
2120,5185,Zbylitowska Góra - Buczyna,,49.98611,20.9027,,,
2121,5189,Zbylitowska Góra - Szkoła,,49.9900287438808,20.9020793437958,,,
2122,5191,Zbylitowska Góra - Ujęcie Wody,,49.9949742072425,20.9037101268768,,,
2229,5308,Tarnów Czarna Droga - Zbylitowska,,50.0013198595944,20.9115167801935,,,
2230,5310,Tarnów Zaciszna - Cmentarz,,49.9999605402574,20.9206295013428,,,
2231,5312,Tarnów Sienkiewicza - Zaciszna,,50.0030918500645,20.9205517035048,,,
2232,5314,Tarnów Sienkiewicza - Zbylitowska,,50.0047103234893,20.9151682994273,,,
2123,5136,Tarnów Zbylitowska - Szkoła,,50.00777,20.91787,,,
2233,5309,Tarnów Zbylitowska - Stadion,,50.0097966433871,20.9241286694812,,,
1782,5120,Tarnów Mościce - Plac,,50.015013,20.924406,,,
2860,3471,Rondo Czyżyńskie,,50.074363981868,20.0185145533628,,,
2861,3473,Bieńczycka,,50.0762978706767,20.0219496961326,,,
2862,3529,Rondo Kocmyrzowskie im. Ks. Gorzelanego,,50.078850767165,20.0281409632002,,,
2863,3531,Os. Zgody,,50.0764547794248,20.0313441351101,,,
2864,3476,Plac Centralny im. R.Reagana,,50.071176329154,20.0385161792906,,,
2865,3477,Os. Na Skarpie,,50.0695731501555,20.04637440203,,,
2866,3480,Klasztorna,,50.0688310430464,20.0502590672916,,,
2867,3482,Fort Mogiła,,50.0653498484862,20.070267973638,,,
2868,3485,Giedroycia,,50.0644501308236,20.08474077455,,,
2869,3487,Brama nr 5,,50.0692412161241,20.0928609031504,,,
2870,3488,Meksyk,,50.0696667089054,20.0958126783371,,,
2871,3490,Koksochemia,,50.07170127,20.10458539,,,
2872,3492,Cmentarz Pleszów,,50.07224546,20.11537036,,,
2873,3494,Pleszów,,50.07274558,20.11997735,,,
2874,3496,Brama nr 8,,50.07345179,20.12662905,,,
2875,3500,Szymańskiego,,50.07503791,20.1399776,,,
2876,3503,Wyciąska,,50.0770448808202,20.1566237211227,,,
2877,3506,Wyciąże Północ,,50.0779399621136,20.1641660928726,,,
2878,3511,Wawrzeńczyce,,50.10949661,20.31508746,,,
2879,3513,Wawrzeńczyce I,,50.11326049,20.32753254,,,
2880,3516,Wawrzeńczyce III,,50.11793749,20.34287343,,,
2881,3517,Nowe Brzesko-Nękanowice II,,50.12138649,20.35612136,,,
2882,3520,Nowe Brzesko-Nękanowice I,,50.12374333,20.36248892,,,
2883,3521,Nowe Brzesko,,50.12632379,20.3684514,,,
2241,2828,Byszyce VII,,49.9278510295043,20.0235975390276,,,
315,79,Byszyce III Kościół,,49.9256258160567,20.0139784812927,,,
316,65,Byszyce IV,,49.9196888619502,20.0147294998169,,,
317,57,Byszyce V,,49.9137770844091,20.0182378292084,,,
2246,4428,Czechówka ul. Spokojna,,49.9039976587904,20.0125770270824,,,
650,4429,Czechówka,,49.9000872337752,20.0057601928711,,,
651,4430,Zakliczyn Dwór,,49.8946061505072,20.0050842242208,,,
652,4431,Zakliczyn Bar,,49.8863276793977,19.9933165653935,,,
653,4432,Zakliczyn Topola,,49.8838912693113,19.9839617577677,,,
654,4433,Borzęta,,49.8768240249311,19.9874106095042,,,
655,4434,Borzęta Strażnica,,49.8669114606171,19.9891948699951,,,
656,4435,Borzęta Kościół,,49.8645255765927,19.9841845035553,,,
657,4436,Borzęta Cmentarz,,49.8618107603819,19.9788559944576,,,
658,4437,Borzęta I,,49.8566227417944,19.9707174894347,,,
659,4438,Myślenice Plac targowy,,49.8429790834973,19.9594334506601,,,
660,4439,Myślenice Cegielskiego,,49.8383562539543,19.9558791741854,,,
661,1164,Myślenice ul. Słowackiego,,49.8359670846315,19.9563485383987,,,
397,191,Rożnowa ,,49.966158,20.057868,,,
398,167,Pawlikowice III,,49.959292,20.053777,,,
399,159,Pawlikowice II,,49.953858,20.054767,,,
400,151,Koźmice Małe,,49.94583,20.057847,,,
401,129,Raciborsko Sieprawówka,,49.939259,20.05694,,,
402,111,Raciborsko Lipowa,,49.935575,20.061415,,,
403,81,Jankówka,,49.926365,20.072726,,,
404,71,Sieraków III,,49.920823,20.081298,,,
405,61,Sieraków II,,49.918282,20.08627,,,
406,59,Sieraków I,,49.914498,20.092181,,,
407,51,Rudnik,,49.909926,20.097756,,,
408,37,Dziekanowice,,49.901594,20.097778,,,
409,33,Dziekanowice Skrzyżowanie,,49.895681,20.098717,,,
410,30,Dobczyce,,49.892741,20.09207,,,
411,23,Dobczyce Mostowa,,49.886331,20.079815,,,
412,4237,Dobczyce Witosa (pętla),,49.879604,20.094807,,,
2006,5011,Jodłówka - Wałki - Dół,,50.06693,21.13496,,,
2007,5018,Jodłówka - Wałki - Las,,50.0629175968751,21.1370435357094,,,
2008,5012,Jodłówka - Wałki - Górówka,,50.06046,21.13888,,,
2009,5024,Jodłówka - Wałki - Szkoła,,50.05438,21.14199,,,
2013,5009,Jodłówka - Wałki - Centrum,,50.0519,21.14064,,,
2014,5020,Jodłówka - Wałki - Lekarz,,50.04994,21.13517,,,
2015,5016,Jodłówka - Wałki - Granica,,50.04877,21.12638,,,
2016,5172,Wola Rzędzińska - Tarel,,50.04819,21.11891,,,
2017,5152,Wola Rzędzińska - Kuźnia,,50.04754,21.11589,,,
2018,5140,Wola Rzędzińska - Dom Strażaka,,50.04661,21.10849,,,
2798,5158,Wola Rzędzińska - Ochronka,,50.0451570423807,21.0993638634682,,,
2020,5160,Wola Rzędzińska - Podlesie,,50.04246,21.0927,,,
2021,5156,Wola Rzędzińska - Mrozówka,,50.04065,21.08721,,,
2022,5146,Wola Rzędzińska - Kapliczka,,50.03964,21.07969,,,
2023,5142,Wola Rzędzińska - Droga do Zaczarnia,,50.03993,21.07221,,,
2024,5148,Wola Rzędzińska - Kościół,,50.03674,21.06222,,,
2025,5138,Wola Rzędzińska - Boisko,,50.03284,21.05286,,,
2026,5174,Wola Rzędzińska - Zlewnia,,50.02839,21.04463,,,
2027,5164,Wola Rzędzińska - Przejazd PKP,,50.02461,21.03785,,,
2028,5128,Tarnów Orkana - Granica miasta,,50.02205,21.03335,,,
2029,5126,Tarnów Orkana - Pętla,,50.01939,21.02774,,,
2030,5124,Tarnów Orkana - Remiza,,50.01713,21.02147,,,
2031,5122,Tarnów Orkana - Szkoła,,50.01496,21.01475,,,
2032,5116,Tarnów Lwowska - Kościół,,50.0143,21.00825,,,
2033,5114,Tarnów Lwowska - Jasna,,50.01466,21.00353,,,
2034,5112,Tarnów Lwowska - Krupnicza,,50.01398,20.99827,,,
2035,5132,Tarnów Starodąbrowska - Mickiewicza,,50.01397,20.99623,,,
2036,5119,Tarnów Mickiewicza - Poczta,,50.01544,20.98923,,,
1448,2559,Łękawka Skrzyżowanie,,49.94552771,21.01539423,,,
1449,2551,Poręba Radlna Góra,,49.9522842,21.00902605,,,
1450,2543,Poręba Radlna,,49.95745567,20.99828595,,,
1451,2537,Poręba Radlna Szkoła,,49.95901904,20.99330739,,,
1452,2536,Poręba Radlna Kościół,,49.96338521,20.99232459,,,
1453,2541,Nowodworze II,,49.9682433,20.99504342,,,
1454,2533,Nowodworze,,49.97164571,20.99144284,,,
1455,2530,Tarnowiec Zimna Woda,,49.97626472,20.98913894,,,
1456,2526,Tarnowiec,,49.98047218,20.98702352,,,
868,898,Radio Kraków,,50.07173286,19.92931291,,,
869,899,Plac Inwalidów,,50.06873452,19.92582692,,,
870,900,AGH/UR,,50.06273176,19.92314635,,,
871,901,Muzeum Narodowe,,50.05873848,19.92516849,,,
872,902,Jubilat,,50.05619417,19.92669043,,,
2793,3535,Rondo Grunwaldzkie,,50.0487095069458,19.9307548999786,,,
874,904,Malczewskiego,,50.04887393,19.90170942,,,
1998,2806,Wodociągowa,,50.0480958967846,19.8966764038394,,,
1999,2804,Benedyktowicza,,50.0475964082419,19.8889945571088,,,
2000,2802,Glinnik,,50.0467283192171,19.8823265854117,,,
875,905,Przegorzały Obwodnica,,50.04615854,19.8715058,,,
2001,2800,Na Krępaku,,50.045205642723,19.8593344540516,,,
2002,2798,Bielańskie Skały,,50.0441540368267,19.8508697066879,,,
876,906,Wodociągi,,50.04184475,19.84121206,,,
2003,2796,Skalna,,50.038903292674,19.8310212437437,,,
2004,2794,Bielańska,,50.0364939620748,19.8253023952521,,,
877,907,Kryspinów Stopień Wodny,,50.03344767,19.81645115,,,
878,908,Piekary Na Brzegu,,50.02954671,19.80694781,,,
879,909,Piekary Korea,,50.02910533,19.80104715,,,
880,910,Piekary Sklep,,50.02622882,19.79739508,,,
881,911,Piekary Centrum,,50.02315333,19.79494356,,,
882,912,Piekary Pałac,,50.02062167,19.7935473,,,
883,913,Piekary Górne,,50.0182755294457,19.7875866293907,,,
884,914,Rączna Gołębiec,,50.01647433,19.77475363,,,
885,915,Rączna Kapliczka,,50.01540841,19.76952077,,,
2389,2842,Liszki Urząd Gminy,,50.0387673308641,19.7685531298079,,,
2390,2843,Cholerzyn Skrzyżowanie,,50.0579555018796,19.7621134489736,,,
2391,2844,Cholerzyn Zagórze,,50.0584223307813,19.7538986751836,,,
2392,2845,Cholerzyn Granica,,50.0598254325931,19.7426151861396,,,
2393,2846,Mników Sklep,,50.0598698805622,19.7277917450671,,,
2394,2847,Mników Remiza,,50.0599409005863,19.7222350395419,,,
2395,2848,Mników Pańska Góra,,50.0637795438315,19.7211194068268,,,
2396,2849,Mników Zarynnie,,50.066211798794,19.7193141976036,,,
2397,2850,Mników Skały,,50.0689354160737,19.7075681800413,,,
2934,3539,Mników Skały Osiedle,,50.0708554181005,19.6969108476044,,,
2398,2851,Czułów Skały,,50.0695720213003,19.6886385977268,,,
2399,2852,Czułów Rezerwat Zimny Dół,,50.0715841970299,19.6852245920415,,,
2400,2853,Mników Baczyn Most Drewniany,,50.0768327942247,19.6867162920388,,,
2401,2854,Mników Baczyn Dom Ludowy,,50.0794019316228,19.6818768336985,,,
2402,2855,Mników Baczyn Bór Sanka,,50.082421515938,19.6766658508429,,,
2403,2856,Mników Baczyn Kapliczka,,50.0880500781444,19.6715210097832,,,
2256,2857,Mników Baczyn Pętla,,50.0898687672927,19.6701689064503,,,
2939,3551,Frywałd Sklep,,50.0912544253184,19.6602090854135,,,
2940,3579,Zalas Ścięgno,,50.0913671323548,19.6462211317058,,,
2941,3581,Zalas Trafo Krzyż,,50.0869825552558,19.637112898734,,,
2942,3569,Zalas Ośrodek Zdrowia,,50.0835093989557,19.6280873426501,,,
2943,3563,Zalas Kościół,,50.0807964253164,19.6267946559257,,,
2944,3577,Zalas Szkoła,,50.0801854376017,19.6206370753781,,,
2945,3565,Zalas Krótka,,50.0792732077321,19.6098271124181,,,
2946,3571,Zalas Plac Studnia,,50.0801913923097,19.6044705352401,,,
2947,3573,Zalas Rondo Obora,,50.0830479386663,19.5991118546129,,,
2948,3575,Zalas Sportowa,,50.0815703122814,19.590614278929,,,
2949,3555,Grojec Sklep,,50.0856856662072,19.5748225412321,,,
2950,3561,Grojec Zajezdnia (wieś),,50.0861914263399,19.5675799043427,,,
2951,3557,Grojec Szkoła,,50.0876680927527,19.5620727525375,,,
2952,3559,Grojec Waga,,50.0888936913774,19.5552011934691,,,
2953,3553,Grojec II,,50.0799146187738,19.5568583389861,,,
2954,3543,Alwernia Garncarska,,50.0699427024754,19.5424656335202,,,
2955,3547,Alwernia Skłodowskiej,,50.0647830943941,19.5431898831622,,,
2956,3545,Alwernia Osiedle,,50.0596917728292,19.5379562523986,,,
2957,3549,Alwernia Spalona,,50.0586727222746,19.5258726733189,,,
2958,3550,Alwernia Zakłady Chemiczne,,50.0548311858207,19.5235526561737,,,
1795,6001,Siedlec Centrum,,49.9606403519742,20.323297983889,,,
1796,6002,Siedlec Czernychowiec,,49.9546089570309,20.3202418181629,,,
1797,6003,Gierczyce Siedlec,,49.9514823096074,20.3189724623429,,,
1798,6004,Książnice III (DW967) ,,49.9506323842339,20.3100509815641,,,
1799,6005,Książnice II (Szkoła),,49.9497658067821,20.3011641174387,,,
1800,6006,Książnice II,,49.9494921438647,20.297098824335,,,
1801,6007,Książnice III ,,49.9504787856563,20.2931672882959,,,
1802,6008,Książnice I,,49.9499514208128,20.2826251814786,,,
1803,6009,Cichawa III,,49.9507200833707,20.2730645386514,,,
1804,6010,Cichawa II (OSP),,49.9519117207738,20.2611116471821,,,
1805,6011,Cichawa I,,49.9505702674655,20.2537741338069,,,
1806,6012,Krakuszowice I,,49.9502525678118,20.2502299439446,,,
1807,6013,Niegowić I (Cmentarz),,49.9405481311219,20.2385251215234,,,
1808,6014,Niegowić III (Rynek),,49.9356821465885,20.2371198418193,,,
1809,6015,Niegowić V (Przedszkole),,49.9285456077428,20.2398917154837,,,
1810,6016,Liplas VII,,49.9290487765497,20.2328349163931,,,
1811,6017,Liplas IV,,49.9304075789921,20.2165866193467,,,
1812,6018,Liplas II (OSP),,49.9315611319035,20.2101072068922,,,
1967,6069,Wiatowice I,,49.9479890289277,20.2132558822632,,,
1813,6019,Wiatowice IV,,49.9502795047894,20.2078283979309,,,
1814,6020,Wiatowice V,,49.957261008371,20.1992128383265,,,
1815,6021,Surówki I,,49.9618982590323,20.1893048529286,,,
1816,6022,Zborówek I ,,49.9621618923334,20.1745413344194,,,
1817,6023,Zabłocie III - Pętla autobusowa,,49.9693304869129,20.174067250648,,,
1818,6024,Szczygłów I,,49.9710076010059,20.1596835453545,,,
1819,6025,Szczygłów II,,49.97112273298,20.1551562719455,,,
1820,6026,Szczygłów III,,49.9712526860499,20.1485574242499,,,
1821,6027,Szczygłów IV,,49.9706293659431,20.1412522609053,,,
1822,6028,Szczygłów V ,,49.971145284623,20.1385268256054,,,
1823,6029,Szczygłów VI,,49.9703128455328,20.1340247195432,,,
1824,6030,Biskupice Rymarówka,,49.9726750777184,20.1226736605167,,,
504,2193,Przebieczany Gdowska,,49.9733883890536,20.1113855838776,,,
505,2186,Tomaszkowice Urząd Gminy Biskupice,,49.9761069829541,20.0983554124832,,,
506,2182,Lednica Górna,,49.9773523788611,20.0919502973557,,,
507,2179,Lednica Górna Świdówka,,49.9785356476017,20.0858777761459,,,
508,2174,Wieliczka Polna,,49.9801776866208,20.0775039196014,,,
509,2170,Wieliczka Os. Asnyka,,49.9827717180938,20.0699239969254,,,
510,2168,Wieliczka Cmentarz,,49.9873419784228,20.0651013851166,,,
511,2164,Wieliczka Klasztor,,49.9884732663827,20.0555741786957,,,
512,2165,Wieliczka Mickiewicza,,49.9860399296189,20.0585809350014,,,
637,4440,Myślenice Cegielskiego,,49.8381098880036,19.9561179516794,,,
638,4441,Myślenice Plac targowy,,49.8429041277939,19.9594782490485,,,
639,4442,Myślenice Dolne Przedmieście,,49.8463059862722,19.9661707878113,,,
640,4443,Borzęta I,,49.8573672174619,19.9721252918243,,,
641,4444,Borzęta Kościół,,49.8645532396914,19.9845921993256,,,
642,4445,Borzęta Strażnica,,49.8671058584643,19.9897991281845,,,
643,4446,Borzęta,,49.8777308698134,19.9868880673223,,,
644,4447,Zakliczyn Topola,,49.8836871453494,19.98391024754,,,
645,4448,Zakliczyn Bar,,49.8864125245746,19.9938631906537,,,
646,4449,Zakliczyn Dwór,,49.8940199317822,20.0049754758214,,,
647,4450,Czechówka,,49.8997976579815,20.0059028388298,,,
2245,4451,Czechówka ul. Spokojna,,49.9037739430004,20.0122524797916,,,
2236,2826,Byszyce III,,49.9268919524526,20.0144117665131,,,
2237,2827,Byszyce VII,,49.9277983658373,20.0242788200527,,,
321,88,Gorzków Kościół,,49.9286613582416,20.0292134284973,,,
322,121,Koźmice Wielkie Podgorzków,,49.9366654321366,20.0314772129059,,,
323,137,Koźmice Wielkie Spławy,,49.942348277126,20.0370132923126,,,
324,152,Koźmice Wielkie Centrum,,49.948095,20.037238,,,
325,161,Koźmice Wielkie Skrzyżowanie,,49.95539,20.034726,,,
326,170,Kopce II,,49.961642,20.039606,,,
327,175,Siercza IV,,49.965037,20.042324,,,
328,181,Siercza III,,49.970542,20.042789,,,
329,194,Siercza II,,49.9725327591976,20.0440943241119,,,
330,183,Siercza,,49.9735746935376,20.0513792037964,,,
331,195,Rożnowa II,,49.9736712955787,20.0580149888992,,,
332,4392,Rożnowa III,,49.972525858895,20.0597423315048,,,
2405,2990,Nowa Jastrząbka - Wesoła,,50.1181371022284,21.1450943786864,,,
2406,2989,Nowa Jastrząbka - Kraków,,50.1096323584474,21.1476599487331,,,
2407,2987,Nowa Jastrząbka - Laski,,50.0990674078023,21.1460067981467,,,
2408,2985,Nowa Jastrząbka - Kościół,,50.0914654739322,21.1485201919175,,,
2409,2983,Nowa Jastrząbka - Cmentarz,,50.0845075357394,21.1496836321716,,,
2816,5208,Nowe Żukowice Gołębin,,50.0835047383522,21.1406026493411,,,
2410,2981,Nowe Żukowice,,50.0852516282934,21.1339260620282,,,
2411,2979,Stare Żukowice - Wieś,,50.0859517878822,21.1194146987548,,,
2412,2977,Stare Żukowice - Szkoła,,50.0871910019301,21.106768230412,,,
2413,2975,Stare Żukowice - Kościół,,50.0875879303335,21.0945777132,,,
2414,2973,Stare Żukowice I,,50.0893949673466,21.0816144669111,,,
2415,2971,Lisia Góra Długa Dębiarze,,50.0798405539075,21.077376001732,,,
2416,2969,Lisia Góra Długa Rondo,,50.0782857986603,21.065651637269,,,
2417,2967,Lisia Góra - ul. Długa,,50.0785005126666,21.053328265387,,,
2418,2965,Lisia Góra - ul. Długa Skrzyżowanie,,50.0790505688609,21.0456759218007,,,
2419,2963,Lisia Góra Mleczarnia,,50.0799441007281,21.0366686821401,,,
2420,2927,Lisia Góra,,50.0833886386529,21.0253737643361,,,
2421,2960,Brzozówka org,,50.0654260783595,21.0153826407642,,,
2422,2958,Tarnów Wiśniowa,,50.0604873656285,21.0124117985261,,,
2141,5100,Szczepanowice - Zatoka,,49.94668,20.8996,,,
2142,5001,Błonie - Granica,,49.94843,20.90267,,,
2143,5007,Błonie - Szkoła,,49.95635,20.90149,,,
2144,5004,Błonie - Las,,49.96184,20.90317,,,
2145,5006,Błonie - Naftobudowa,,49.96607,20.89992,,,
2146,5194,Zgłobice - ul. Słoneczna - Sklep,,49.96935,20.90238,,,
2052,5205,Zgłobice - ul. Zgłobicka - Słoneczna,,49.97285,20.90588,,,
2,599,Olkusz Dworzec PKP,,50.2750106252333,19.5739942789078,,,
3,601,Olkusz Wiadukt,,50.2741089429147,19.582314491272,,,
213,736,Olkusz Os. Słowiki,,50.2774927347377,19.579803943634,,,
808,2049,Olkusz Supersam,,50.28032582,19.56402402,,,
809,2046,Olkusz Basen,,50.2737304,19.56123515,,,
810,2055,Olkusz Szpital,,50.26964188,19.56847949,,,
6,604,Olkusz Biema,,50.2698334334758,19.5731091499329,,,
7,605,Olkusz Kościół,,50.2650911804979,19.5745199918747,,,
811,2058,Olkusz Ks. Gajewskiego,,50.26210738,19.57569548,,,
8,606,Witeradów I,,50.2580330829949,19.5766947749582,,,
9,607,Witeradów II,,50.2534429632685,19.5765726564968,,,
10,608,Witeradów III,,50.247942435752,19.5780517168199,,,
1980,2786,Witeradów,,50.2455862441095,19.579038610095,,,
11,609,Witeradów IV,,50.2421100114921,19.580123037535,,,
1981,2787,Gorenice Wilcze Doły,,50.2244064202803,19.5868338564007,,,
12,610,Gorenice Kościół,,50.2067705610213,19.6028172969818,,,
1982,2788,Gorenice Remiza,,50.2081468044857,19.6082128266443,,,
13,611,Gorenice Szkoła,,50.2084274197517,19.6123887855484,,,
14,612,Gorenice Dołek,,50.2076250359928,19.6184680755821,,,
15,613,Gorenice Wzniesienie,,50.2066073256298,19.6250708247212,,,
16,614,Gorenice,,50.2059534217312,19.6342393755913,,,
17,4387,Paczółtowice Dolina Eliaszówki,,50.1787824442467,19.6377772092819,,,
18,622,Czerna Klasztor,,50.1659308192905,19.634180366993,,,
19,623,Czerna Skrzyżowanie,,50.1616645045719,19.630234837532,,,
20,624,Kopalnia Wapienia Czatkowice,,50.1552359629588,19.6300739049912,,,
21,625,Krzeszowice Osiedle Czatkowice,,50.1472482940645,19.63386414253,,,
22,626,Krzeszowice Grunwaldzka UM,,50.1358746636099,19.6292638778687,,,
23,627,Krzeszowice Centrum,,50.1350563111001,19.6336036920547,,,
296,5,Myślenice Cmentarz,,49.847434,19.942382,,,
297,7,Polanka I,,49.85705,19.939122,,,
298,9,Polanka II,,49.861138,19.941,,,
299,17,Zawada Folwark,,49.873266,19.947473,,,
2697,3410,Zawada I,,49.877056,19.945861,,,
2698,3412,Zawada II,,49.882806,19.94175,,,
300,25,Krzyszkowice,,49.888856,19.934857,,,
2699,3414,Krzyszkowice Gajówki,,49.893222,19.939722,,,
1913,6067,Krzyszkowice Od Sieprawia,,49.898425185567,19.9461078643799,,,
301,41,Siepraw MAAN,,49.9041280872085,19.9507695436478,,,
302,48,Siepraw skrzyżowanie,,49.908124,19.960604,,,
303,56,Siepraw I,,49.913651,19.949788,,,
304,67,Siepraw II,,49.919871,19.946394,,,
305,78,Olszowice Centrum,,49.925412,19.941457,,,
2735,3527,Olszowice Krzyżówka,,49.9308552,19.93424205,,,
306,105,Świątniki Górne Buk,,49.935039,19.934426,,,
307,100,Świątniki Górne Urząd Miasta i Gminy,,49.934235,19.946738,,,
308,102,Świątniki Górne Centrum,,49.934337,19.954003,,,
309,106,Świątniki Górne Bielowicza Szkoła,,49.935073,19.962408,,,
310,101,Świątniki Górne Skrzyżowanie,,49.934269,19.966911,,,
311,93,Świątniki Górne Piasna Górka,,49.931855,19.973961,,,
312,91,Rzeszotary Zalesie,,49.931544,19.981504,,,
313,95,Rzeszotary Panciawa,,49.932077,19.993653,,,
319,63,Gorzków Kapliczka,,49.91924,20.028863,,,
320,76,Gorzków OSP,,49.925185,20.028812,,,
513,2166,Wieliczka Mickiewicza,,49.9858847161521,20.0586104393005,,,
514,2167,Wieliczka Cmentarz,,49.9873005893343,20.0643825531006,,,
515,2169,Wieliczka Os. Asnyka,,49.9825406066038,20.0696986913681,,,
516,2171,Wieliczka Ochronka,,49.9815281872155,20.0704255700111,,,
517,2175,Wieliczka Polna,,49.9800121053949,20.0778687000275,,,
518,2181,Lednica Górna Świdówka,,49.9782769178556,20.086784362793,,,
519,2183,Lednica Górna,,49.9772316355167,20.0922238826752,,,
520,2187,Tomaszkowice Urząd Gminy Biskupice,,49.9758689396238,20.0991868972778,,,
521,2189,Przebieczany Gdowska,,49.9740863536081,20.1083203561669,,,
522,2203,Biskupice III,,49.9726058590201,20.1215097371642,,,
523,2202,Biskupice OSP,,49.964555348845,20.1207411289215,,,
524,2211,Sułów I,,49.9575291642043,20.1254725456238,,,
525,2209,Sułów II,,49.9513165555718,20.1247429847717,,,
526,138,Grajów Przymiarki,,49.9435738332227,20.092915892601,,,
527,133,Grajów II Sklep,,49.9398176640556,20.0984197854996,,,
528,123,Grajów III Szkoła,,49.9378082695104,20.1024430990219,,,
529,114,Grajów IV Za Szkołą,,49.9367931826751,20.1041704416275,,,
530,98,Grajów os. Katy,,49.9337443409285,20.1079845428467,,,
531,86,Grajów V Boisko,,49.9287097043521,20.1097011566162,,,
532,2194,Grajów Dębówka,,49.9248812534228,20.1150218464411,,,
533,2196,Grajów Żakowa,,49.9225726333494,20.1171423164719,,,
534,2198,Hucisko Kapliczka,,49.9197028763504,20.1189051836836,,,
535,2213,Hucisko Las,,49.9149958195864,20.1262947639007,,,
536,2215,Winiary II,,49.9072485637586,20.1270633558752,,,
537,2218,Winiary I,,49.9042749267274,20.1315343379974,,,
538,2217,Winiary OSP,,49.900156340569,20.1315665245056,,,
539,2201,Winiary,,49.9005366978182,20.1207095563678,,,
540,2190,Niezdów,,49.898672804903,20.1087640983014,,,
541,4240,Dobczyce Skrz. Ul. Kilińskiego,,49.876976,20.10536,,,
542,4242,Dobczyce Marwin,,49.87398,20.113474,,,
543,4246,Czasław,,49.866076,20.116081,,,
544,4259,Czasław Dwór,,49.855079,20.118331,,,
545,4254,Czasław Myto,,49.846144,20.117337,,,
546,4467,Raciechowice,,49.8451056316391,20.1401925086975,,,
547,4453,Komorniki,,49.8407327146462,20.1605185074721,,,
548,4454,Dąbie Skrzyżowanie,,49.835844708729,20.1789441702081,,,
549,4455,Dąbie,,49.8266259242289,20.1685501333842,,,
550,4456,Krzesławice,,49.8032329299273,20.1709412160477,,,
551,4457,Pogorzany II,,49.7981681334673,20.1739132404327,,,
552,4458,Szczyrzyc,,49.7826634311522,20.1880592107773,,,
553,4459,Szczyrzyc Szpital,,49.7777143740239,20.190845334684,,,
2658,3293,Brzesko Uczestników Ruchu Oporu,,49.9694068208194,20.609450340271,,,
1087,389,Brzesko D.A.,,49.9716,20.616414,,,
1088,392,Brzesko Solskiego Jawor,,49.975532,20.615716,,,
1089,403,Brzesko Solskiego Rondo,,49.98071,20.61321,,,
1090,406,Brzesko PKP,,49.986294,20.610362,,,
1091,407,Brzesko Kopernika Grecja,,49.988879,20.611683,,,
1092,415,Brzesko Kopernika Bagienna,,49.992821,20.616729,,,
1093,421,Mokrzyska Wiślana Januszowska,,50.000526,20.61812,,,
1094,427,Mokrzyska Wiślana Szkoła,,50.004195,20.619614,,,
1095,434,Mokrzyska Wiślana ABC,,50.009427,20.624581,,,
1096,436,Mokrzyska Wiślana Jeziorańska,,50.012214,20.625671,,,
1097,441,Mokrzyska Wiślana,,50.016756,20.630462,,,
1098,445,Mokrzyska Wiślana Wielgoszówka,,50.023572,20.633411,,,
1099,457,Przyborów Sklep,,50.031913,20.641457,,,
1100,459,Przyborów,,50.04526,20.646543,,,
1101,456,Przyborów Sklep,,50.041291,20.65264,,,
1102,452,Przyborów Kościół,,50.03474,20.659923,,,
1103,447,Przyborów Remiza,,50.031618,20.663195,,,
1104,461,Borzęcin Iglopol,,50.04592,20.682797,,,
1105,462,Borzęcin 726,,50.045988,20.682872,,,
1106,470,Borzęcin Centrum,,50.065102,20.706162,,,
1107,471,Borzęcin Urząd Gminy,,50.06733,20.709885,,,
1108,474,Borzęcin Młyn,,50.075989,20.705846,,,
1109,485,Borzęcin Młyn II,,50.081934,20.70522,,,
1110,490,Borzęcin Ciernie,,50.093242,20.698501,,,
1111,493,Borzęcin Dolny,,50.100608,20.69756,,,
2659,3129,Rylowa Centrum,,50.1081864288372,20.668322586709,,,
2660,3131,Szczurowa Lwowska,,50.1175004905519,20.6498054339187,,,
774,507,Szczurowa,,50.119724,20.636848,,,
2661,3132,Szczurowa Lwowska,,50.1173090058557,20.6505671467374,,,
2662,3133,Włoszyn,,50.1218559198465,20.6685326442189,,,
2663,3135,Dołęga,,50.1276214242797,20.6841130656546,,,
2664,3141,Zaborów Poczta,,50.1471066843824,20.6886076927185,,,
2665,3143,Zaborów - Szkoła,,50.1475819357818,20.6889341328052,,,
2666,3145,Wola Przemykowska - Szkoła,,50.1757902035398,20.6812941652421,,,
2667,3147,Wola Przemykowska - Przykońce,,50.1842379718456,20.6857887380523,,,
2668,3149,Wola Przemykowska - Natków,,50.1937953093451,20.6860384072067,,,
2669,3151,Wola Rogowska,,50.2015714681108,20.6923506557941,,,
2670,3153,Wola Rogowska - Remiza,,50.209683249091,20.6925897987557,,,
2671,3155,Wola Rogowska - Lipie,,50.2116083187998,20.7063957527795,,,
2672,3157,Demblin OSP,,50.2109556471643,20.7355789689587,,,
2673,3159,Miechowice Wielkie - Wyspa,,50.2038381027156,20.7431638910943,,,
2674,3161,Miechowice Wielkie,,50.1903140882559,20.7516620647744,,,
2675,3162,Wietrzychowice,,50.1914234233948,20.7597400671717,,,
1532,2490,Zgłobice ul. Krakowska - Jasna,,49.97440764,20.89355947,,,
1533,2488,Zgłobice Dunajec,,49.9709926,20.87912466,,,
1534,2486,Mikołajowice,,49.96907075,20.87070869,,,
1535,2480,Łukanowice,,49.96447322,20.85830948,,,
1536,2478,Wojnicz Cmentarz,,49.9600415916164,20.8476734161377,,,
1789,1165,Wojnicz Rynek,,49.9579467608119,20.8385217189789,,,
1538,2475,Wojnicz ul. Jagiellońska (Kościół),,49.95541184,20.83568704,,,
1539,2470,Wojnicz Skrzyżowanie Więckowice,,49.9492731224664,20.8279752731323,,,
1540,2468,Wielka Wieś,,49.93368152,20.82695284,,,
1541,2469,Wielka Wieś I,,49.92155368,20.82747372,,,
1542,2463,Sukmanie,,49.9148317,20.82048885,,,
1543,2461,Sukmanie Sklep,,49.90547804,20.81727498,,,
1544,2460,Olszyny k/Wojnicza,,49.89331198,20.81720547,,,
1545,2466,Olszyny Kościół,,49.8887884,20.82533006,,,
1546,2473,Olszyny,,49.88065462,20.83157451,,,
1547,2458,Roztoka k/Zakliczyna,,49.87350154,20.81197166,,,
1548,2441,Zakliczyn Grabina I,,49.85124064,20.79626963,,,
1549,2439,Zakliczyn Grabina II,,49.84865658,20.7946177,,,
1550,2437,Zakliczyn Grabina III,,49.84490412,20.79440042,,,
1551,2447,Zakliczyn ul. Ruchu Oporu – Szkoła,,49.84102737,20.79766645,,,
1552,2456,Bieśnik Granica,,49.8337847,20.81167144,,,
1553,2452,Bieśnik,,49.82116842,20.80070141,,,
1554,2445,Borowa,,49.80583656,20.79756122,,,
1555,2449,Paleśnica,,49.79719403,20.79879691,,,
1556,2450,Paleśnica I,,49.79395965,20.80051912,,,
1557,2435,Paleśnica Granica,,49.78527865,20.7914187,,,
1558,2431,Bujne,,49.77772438,20.77657166,,,
1559,2434,Bartkowa Posadowa Góra,,49.76770459,20.78041016,,,
1560,2429,Podole Górowa Szkoła,,49.75592636,20.77439116,,,
1561,2427,Bartkowa Posadowa,,49.75769249,20.7539729,,,
1562,2426,Bartkowa,,49.75644872,20.74917719,,,
1563,2424,Gródek nad Dunajcem,,49.74742428,20.73254787,,,
1564,2422,Gródek nad Dunajcem Koszarka,,49.73880058,20.72805256,,,
1565,2419,Lipie I,,49.73490043,20.7254375,,,
1566,2418,Lipie,,49.72655989,20.71980931,,,
1567,2411,Lipie Ośrodek Wypoczynkowy,,49.72217889,20.7060923,,,
1568,2397,Sienna I,,49.71425589,20.6938974,,,
1569,2379,Sienna II,,49.70616121,20.68257897,,,
1570,2384,Wola Kurowska,,49.70199361,20.68562776,,,
1571,2372,Zbyszyce,,49.69394255,20.67793168,,,
1572,2374,Dąbrowa Góry,,49.6886908,20.67883335,,,
1573,2375,Dąbrowa Szpital,,49.67900513,20.67939434,,,
1574,2382,Dąbrowa,,49.67367811,20.68388934,,,
1575,2385,Wielogłowy,,49.66968823,20.68657133,,,
1576,2388,Nowy Sącz ul. Tarnowska - Galeria Szubryt,,49.65612439,20.68949249,,,
1577,2390,Nowy Sącz ul. Tarnowska - Zabełcze,,49.64762642,20.69046493,,,
1578,2392,Nowy Sącz ul. Tarnowska,,49.63185146,20.69163292,,,
1579,2398,Nowy Sącz ul. Bulwar Narwiku - Most (II),,49.62543203,20.69489272,,,
1580,2401,Nowy Sącz ul. Bulwar Narwiku - Kopernika,,49.6221889,20.69740853,,,
1581,2412,Nowy Sącz Kilińskiego - Stadion,,49.61965803,20.70610574,,,
1582,2414,Nowy Sącz Rejtana,,49.61649979,20.70765224,,,
1584,2406,Nowy Sącz Aleja Batorego - Dworzec PKP,,49.6081063277659,20.7016754150391,,,
1788,2405,Nowy Sącz Aleja Batorego,,49.6126223,20.6991635,,,
2962,3548,Alwernia Spalona,,50.0587083419617,19.5275222558513,,,
2963,3544,Alwernia Osiedle,,50.0596353652765,19.5382333608529,,,
2964,3546,Alwernia Skłodowskiej,,50.063965473066,19.5432668601101,,,
2965,3542,Alwernia Garncarska,,50.0698384230715,19.5423521110021,,,
2966,3552,Grojec II,,50.079581061744,19.5568888072941,,,
2967,3556,Grojec Szkoła,,50.0877591958014,19.561664412264,,,
2968,3560,Grojec Zajezdnia (wieś),,50.086121664781,19.5674736115241,,,
2969,3554,Grojec Sklep,,50.0854266941561,19.5767500328589,,,
2970,3574,Zalas Sportowa,,50.0814811761221,19.5906969886004,,,
2971,3572,Zalas Rondo Obora,,50.0829997436639,19.5990311410335,,,
2972,3570,Zalas Plac Studnia,,50.080071180808,19.604635925027,,,
2973,3564,Zalas Krótka,,50.0791840214793,19.6109389391112,,,
2974,3576,Zalas Szkoła,,50.080122393058,19.6205275910684,,,
2975,3562,Zalas Kościół,,50.0806522937195,19.6267617742908,,,
2976,3568,Zalas Ośrodek Zdrowia,,50.0834526028163,19.628154397871,,,
2977,3566,Zalas Krzyżówka,,50.085539680555,19.6343625203318,,,
2978,3578,Zalas Ścięgno,,50.0913389398737,19.6463699076647,,,
2979,3541,Mników Baczyn Pętla,,50.089768956972,19.6701380610466,,,
2257,2858,Mników Baczyn Kapliczka,,50.0880807543661,19.6714174747467,,,
2258,2859,Mników Baczyn Bór Sanka,,50.0824025799617,19.6766329361069,,,
2259,2860,Mników Baczyn Dom Ludowy,,50.0793477727788,19.6816942620255,,,
2260,2861,Mników Baczyn Most Drewniany,,50.0762816665083,19.6868135652062,,,
2261,2862,Czułów Rezerwat Zimny Dół,,50.0716661187,19.6851050120045,,,
2262,2863,Czułów Skały,,50.0695337158069,19.6886379271746,,,
2935,3540,Mników Skały Osiedle,,50.0705973458717,19.6963646244788,,,
2263,2864,Mników Skały,,50.0688980770657,19.7074423330259,,,
2264,2865,Mników Zarynnie,,50.0661885285311,19.719305602563,,,
2265,2866,Mników Pańska Góra,,50.0636419438163,19.7210660837195,,,
2266,2867,Mników Remiza,,50.0598798959629,19.7219638770045,,,
2267,2868,Mników Sklep,,50.0598425089666,19.7285726807823,,,
2268,2869,Cholerzyn Granica,,50.0598097721441,19.7421730246014,,,
2269,2870,Cholerzyn Zagórze,,50.058303195913,19.7546212837397,,,
2270,2871,Cholerzyn Skrzyżowanie,,50.057903692889,19.7618841350183,,,
2271,2872,Liszki Urząd Gminy,,50.0385223580798,19.7682608835299,,,
851,881,Rączna Kapliczka,,50.01526802,19.76921131,,,
852,882,Rączna Gołębiec,,50.01650729,19.77582987,,,
853,883,Piekary Górne,,50.0182065919862,19.7875517606735,,,
854,884,Piekary Pałac,,50.02042429,19.79371718,,,
855,885,Piekary Centrum,,50.02347204,19.79645105,,,
856,886,Piekary Sklep,,50.0261182430859,19.797534942627,,,
857,887,Piekary Korea,,50.02906489,19.80110222,,,
858,888,Piekary Na Brzegu,,50.02954463,19.80725158,,,
859,889,Kryspinów Stopień Wodny,,50.0332263,19.81605397,,,
1991,2795,Bielańska,,50.036876412307,19.826109849836,,,
1992,2797,Skalna,,50.0388826203275,19.831611329671,,,
860,890,Wodociągi,,50.04112392,19.83992315,,,
1993,2799,Bielańskie Skały,,50.0441195866791,19.8514571104065,,,
1994,2801,Na Krępaku,,50.0451780832107,19.8606272786741,,,
861,891,Przegorzały Obwodnica,,50.04612224,19.87281544,,,
1995,2803,Glinnik,,50.0471038040841,19.8835067572663,,,
1996,2805,Benedyktowicza,,50.0475929634753,19.8897455755617,,,
1997,2807,Wodociągowa,,50.048064894199,19.8972128455914,,,
2763,3534,Malczewskiego,,50.0490324452319,19.9041071534157,,,
1178,2136,Rondo Grunwaldzkie,,50.04821551,19.93237895,,,
1180,2143,Rondo Matecznego,,50.03697419,19.93993567,,,
1181,2140,Łagiewniki,,50.02878563,19.93621174,,,
1182,2131,Borek Fałęcki,,50.01191553,19.92734898,,,
1185,2118,Opatkowice,,49.98648684,19.91394451,,,
2844,3537,Mogilany Ośrodek Zdrowia,,49.9417902594285,19.8928902682215,,,
1193,2090,Głogoczów Podlesie,,49.91422346,19.87349555,,,
2845,3394,Głogoczów II Stawy,,49.9034863082496,19.8521808571329,,,
2846,3392,Krzywaczka,,49.8921220642726,19.8284537271286,,,
2847,3390,Biertowice Skrzyżowanie,,49.8780668877702,19.7951011902033,,,
2848,3388,Izdebnik II,,49.8686119184876,19.7629245834423,,,
2849,3386,Brody Skrzyżowanie,,49.8661344960929,19.6939532451066,,,
2850,3384,Barwałd Górny,,49.8643474720319,19.6171222982764,,,
2851,3382,Barwałd Średni,,49.8655204550548,19.5954082039787,,,
2852,3380,Barwałd Dolny,,49.8659075124208,19.5741657771094,,,
2853,3378,Klecza Dolna,,49.8704131542799,19.5456863819186,,,
2806,3376,Wadowice D.A.,,49.884984759886,19.5005312063426,,,
2854,3375,Wadowice Rondo im Generała Czumy,,49.8871620327328,19.480196343249,,,
2855,3373,Chocznia PKP,,49.8741326133946,19.4526702756126,,,
2856,3371,Inwałd Sklep (Park Rozrywki),,49.866921034276,19.4083773187608,,,
2857,3369,Inwałd Kościół,,49.8624820917161,19.3900105455688,,,
2927,5214,Andrychów Osiedle WSW,,49.8557659811137,19.335296780083,,,
2858,3367,Andrychów Górnica,,49.8605536543575,19.3210741033071,,,
2928,5216,Bulowice Kościół,,49.8772993917595,19.2804762858001,,,
2929,5222,Bulowice Zamek,,49.8797256952981,19.2611034264965,,,
2799,3399,Kęty D.A.,,49.8818579953705,19.2291906137951,,,
2930,5218,Kęty Osiedle,,49.8758779116918,19.2239696392683,,,
2931,5220,Kęty ZML,,49.8674711898129,19.2263145729575,,,
2073,5133,Tarnów Starodąbrowska - Lwowska,,50.01443,20.99578,,,
2074,5111,Tarnów Lwowska - Mostowa,,50.01385,20.99891,,,
2075,5113,Tarnów Lwowska - Kowalska,,50.01437,21.00286,,,
2076,5115,Tarnów Lwowska - Burtnicza,,50.01426,21.00729,,,
2077,5121,Tarnów Orkana - Szkoła,,50.01496,21.015,,,
2078,5123,Tarnów Orkana - Remiza,,50.01707,21.02174,,,
2079,5125,Tarnów Orkana - Pętla,,50.01937,21.02791,,,
2080,5127,Tarnów Orkana - Granica miasta,,50.02207,21.03356,,,
2081,5163,Wola Rzędzińska - Przejazd PKP,,50.02412,21.03714,,,
2082,5173,Wola Rzędzińska - Zlewnia,,50.02866,21.04531,,,
2083,5137,Wola Rzędzińska - Boisko,,50.03287,21.05321,,,
2084,5147,Wola Rzędzińska - Kościół,,50.03749,21.06468,,,
2085,5141,Wola Rzędzińska - Droga do Zaczarnia,,50.03974,21.07193,,,
2086,5145,Wola Rzędzińska - Kapliczka,,50.03957,21.08086,,,
2087,5155,Wola Rzędzińska - Mrozówka,,50.04055,21.08715,,,
2088,5159,Wola Rzędzińska - Podlesie,,50.04219,21.09219,,,
2089,5157,Wola Rzędzińska - Ochronka,,50.04515,21.09952,,,
2090,5139,Wola Rzędzińska - Dom Strażaka,,50.0464,21.10742,,,
2091,5151,Wola Rzędzińska - Kuźnia,,50.04749,21.11599,,,
2092,5165,Wola Rzędzińska - Tarel,,50.04817,21.11913,,,
2093,5017,Jodłówka - Wałki - Granica,,50.04882,21.12797,,,
2094,5021,Jodłówka - Wałki - Lekarz,,50.04996,21.13543,,,
2095,5010,Jodłówka - Wałki - Centrum,,50.05212,21.14132,,,
2096,5025,Jodłówka - Wałki - Szkoła,,50.05496,21.14134,,,
2097,5013,Jodłówka - Wałki - Górówka,,50.0604036542603,21.1391007900238,,,
2098,5019,Jodłówka - Wałki - Las,,50.0634341441098,21.1366653442383,,,
2762,3469,Ryglice Rynek,,49.8787375655492,21.1381674384814,,,
2765,3467,Ryglice Szkoła,,49.8827990922853,21.1367735938646,,,
2766,3465,Ryglice,,49.893434023652,21.1374570970641,,,
2767,3464,Zalasowa Granica,,49.903947589406,21.1404163673011,,,
2768,3461,Zalasowa Skrzyżowanie,,49.9149642290754,21.1377014399681,,,
2769,3459,Zalasowa Górna,,49.924858157114,21.1215514641422,,,
2770,3458,Zalasowa Niżna,,49.9368633705964,21.1254581415297,,,
2771,3455,Zalasowa Tarnowska - Ogrodowa,,49.9442126906576,21.1301665092051,,,
2772,3454,Szynwałd Granica,,49.9488584175065,21.1257271050226,,,
2773,3452,Szynwałd Transformator,,49.9570364958032,21.1206158774722,,,
2774,3450,Szynwałd Ośrodek Zdrowia,,49.9647118871596,21.1255873194134,,,
2775,3448,Szynwałd Magazyny,,49.9700574014465,21.1199385265087,,,
2776,3446,Szynwałd Szkoła,,49.974375308019,21.1151718032755,,,
2777,3444,Szynwałd Japonia,,49.9832178605877,21.1146240559349,,,
2778,3442,Szynwałd Skrzyszów Granica,,49.9869346884201,21.1074109367602,,,
2779,3440,Skrzyszów Szkoła,,49.987264007555,21.0965585847892,,,
2780,3438,Skrzyszów Górny,,49.9889765917106,21.0817087151858,,,
2781,3436,Skrzyszów Zabagnie,,49.9913159234568,21.0720602495082,,,
2782,3433,Skrzyszów Kościół,,49.9954203905113,21.0564435419811,,,
2783,3432,Skrzyszów Most,,49.9964532917509,21.0477475188078,,,
2784,3430,Skrzyszów Tartak,,49.9978457116368,21.0398625927814,,,
2785,3428,Skrzyszów Wiadukt,,50.0002774493196,21.0314685077677,,,
2786,3426,Skrzyszów Granica,,50.0041633702632,21.0221096102722,,,
2787,3424,Tarnów Braci Saków - Potoczka,,50.0056627632772,21.0164609130883,,,
2936,3422,Tarnów Braci Saków - Park,,50.0073484839576,21.0084942209992,,,
2937,3525,Tarnów Gumniska - Kościół,,50.008530112792,20.9993725051227,,,
2792,3418,Tarnów Konarskiego - Sąd,,50.0091892201016,20.9930744359793,,,
1008,2035,Smolice Szkoła,,50.02789192,19.45764327,,,
1009,2033,Smolice Kapliczka,,50.02522648,19.45583881,,,
1010,2029,Smolice Żwirownia,,50.0187218971027,19.452463388443,,,
1011,2031,Zator os. Morysina II,,50.00380167,19.45399154,,,
1012,2027,Zator os. Morysina I,,50.002315592432,19.4492554664612,,,
1017,2024,Zator ul. Słowackiego,,49.997153636325,19.4326311349869,,,
1018,2018,Zator ul. Bugajska,,49.98914571,19.41945258,,,
1019,2010,Zator Granica,,49.98461032,19.40386737,,,
1020,2013,Łowiczki Szkoła,,49.97898423,19.40800385,,,
1021,2015,Łowiczki,,49.97453215,19.41194,,,
1022,2016,Łowiczki Bugaj II,,49.96489617,19.41202359,,,
1023,2008,Gierałtowice Granica,,49.95535323,19.40308904,,,
1024,2004,Gierałtowice Zbójecka,,49.95363055,19.38996194,,,
1025,2006,Gierałtowice Pod Odrobiną,,49.94544532,19.39316262,,,
1026,2001,Gierałtowice Skrzyżowanie,,49.94014018,19.38717128,,,
1027,2000,Gierałtowice Przedszkole,,49.93284403,19.38631597,,,
2469,3283,Gierałtowice Stawy,,49.9214855851419,19.3738812056944,,,
2470,3281,Wieprz Dolny,,49.916669404556,19.3749220519919,,,
2471,3279,Wieprz Szkoła,,49.9079113210341,19.3713908543318,,,
2472,3277,Wieprz Poczta,,49.8998399401722,19.3657976066843,,,
2473,3275,Wieprz Mleczarnia,,49.8920967733005,19.3575920740192,,,
2474,3273,Wieprz Przedszkole,,49.8852330089514,19.3528803903279,,,
2475,3271,Wieprz Spółdzielnia,,49.8770460199611,19.3447823480052,,,
2476,3295,Wieprz Granica,,49.8698162546575,19.3410686385828,,,
2477,3266,Andrychów Przedmieście,,49.8623148974158,19.3388916833755,,,
2478,3269,Andrychów ul. Krakowska,,49.8549575966211,19.3421906454891,,,
2242,2820,Konopnickiej,,50.0528208586355,19.9291765805417,,,
1179,2137,Ludwinów,,50.04314416,19.93479371,,,
1907,4533,Łagiewniki SKA,,50.0200626985626,19.931725859642,,,
1183,2126,Góra Borkowska,,50.00678393,19.92463753,,,
1184,2122,Judyma,,50.00154048,19.92181911,,,
2243,2822,Kąpielowa,,49.9975723151884,19.919861474007,,,
2244,2824,Opatkowice Wiadukt,,49.9948954571374,19.9184449584531,,,
1186,2116,Ważewskiego,,49.98289543,19.91189213,,,
1187,2110,Libertów Góra Libertowska,,49.9730005,19.90680779,,,
1188,2103,Gaj Szkoła,,49.96064773,19.89000101,,,
1189,2101,Gaj Zadziele,,49.955213,19.8894499,,,
1190,2100,Mogilany Rynek,,49.94232846,19.88597667,,,
1191,2108,Mogilany Cicha,,49.9379625,19.89308423,,,
1192,2096,Mogilany Włosań,,49.92575232,19.88292899,,,
1194,2088,Głogoczów Dwór,,49.90547383,19.869965,,,
1195,2091,Głogoczów,,49.89400552,19.87382027,,,
1196,2099,Głogoczów Bęczarka,,49.87910086,19.8832176,,,
1197,4508,Krzyszkowice Zakopianka,,49.87173813,19.90758899,,,
1198,2112,Jawornik Syberia,,49.86042096,19.9089353,,,
1199,2114,Jawornik,,49.85687254,19.91074831,,,
1200,2121,Jawornik (kładka dla pieszych),,49.85292797,19.91655269,,,
1201,2128,Myślenice Tarnówka,,49.84536238,19.92627292,,,
1202,2139,Myślenice Dąbrowskiego,,49.83539796,19.93613139,,,
2380,2995,Brzozówka - Szkoła,,50.05910242697,21.0151601134889,,,
2381,2997,Brzozówka,,50.0569793178971,21.0227429296707,,,
2382,2999,Zaczarnie,,50.0547248680495,21.0328996918419,,,
2383,3001,Zaczarnie - Koło Rolnicze,,50.0591440790925,21.0456656852371,,,
2384,3003,Zaczarnie - Krzyż,,50.0602115730933,21.05684748268,,,
2385,3005,Zaczarnie - Szkoła,,50.0628476575099,21.0692162683771,,,
2386,3007,Zaczarnie - Zlewnia,,50.0662263005071,21.0832223436804,,,
2387,3009,Zaczarnie - Skrzyżowanie,,50.0680129626723,21.0927820499584,,,
2124,5107,Tarnów Czerwonych Klonów - Park,,50.01069,20.92503,,,
2125,5134,Tarnów Zbylitowska - Kościół,,50.0092800789098,20.9207904338837,,,
2226,5315,Tarnów Sienkiewicza - Zbylitowska,,50.0047429258925,20.9150266912339,,,
2227,5313,Tarnów Sienkiewicza - Zaciszna,,50.0029447631514,20.9210420770417,,,
2228,5311,Tarnów Czarna Droga - Cmentarz,,49.9987096684953,20.9190123758667,,,
2126,5135,Tarnów Zbylitowska - Czarna Droga,,50.00093,20.91021,,,
2127,5190,Zbylitowska Góra - Ujęcie Wody,,49.99599,20.90404,,,
2128,5188,Zbylitowska Góra - Szkoła,,49.99005,20.90182,,,
2129,5184,Zbylitowska Góra - Buczyna,,49.98583,20.90263,,,
2130,5186,Zbylitowska Góra - Cmentarz,,49.98222,20.90319,,,
2131,5202,Zgłobice - ul. Zbylitowska,,49.97887,20.90406,,,
554,4499,Limanowa Zygmunta Augusta,,49.6992679304786,20.4205423593521,,,
555,4216,Limanowa Sąd,,49.704417,20.418236,,,
557,307,Limanowa Kopernika,,49.708382,20.425036,,,
558,309,Limanowa PKP,,49.712927,20.421319,,,
559,311,Limanowa ul. Słoneczna,,49.715167,20.417812,,,
560,312,Limanowa Szpital,,49.7166272226372,20.4148453474045,,,
561,315,Limanowa Sowliny Osiedle,,49.7198562546294,20.4086762666702,,,
562,316,Limanowa Sowliny,,49.7215417864597,20.4056292772293,,,
563,4468,Limanowa Sowliny Sucha,,49.7192423735633,20.3860330581665,,,
564,4469,Przylaski,,49.7219267453981,20.3647470474243,,,
565,4470,Zamieście II,,49.721642361612,20.3510141372681,,,
566,2275,Zamieście I,,49.7212401980751,20.3423706354496,,,
567,2271,Tymbark Szkoła,,49.7232862156051,20.3248035907745,,,
568,2269,Tymbark Rynek,,49.7296662879277,20.3246380490911,,,
569,2263,Tymbark PKP,,49.7315247355255,20.3188344702147,,,
570,2262,Tymbark Góry,,49.7347781487878,20.3104023525168,,,
571,2258,Podłopień Dolny,,49.7363464759547,20.2945552413427,,,
572,2253,Podłopień Jasna,,49.730446830448,20.276033821748,,,
573,2251,Dobra Drożdże,,49.7257424425379,20.2684283800081,,,
574,2247,Dobra Noworolniki,,49.7234914997623,20.2612057226474,,,
575,4331,Dobra Rynek Park,,49.718384,20.249936,,,
576,4325,Dobra PKP,,49.7232654076745,20.2395844459534,,,
577,4315,Dobra Zadziele,,49.72597,20.230978,,,
578,4300,Porąbka Szkoła,,49.726803,20.214198,,,
579,4298,Porąbka,,49.725217,20.211693,,,
580,4293,Porąbka Rola,,49.726308,20.198871,,,
581,4290,Skrzydlna Zagórze 1,,49.741416,20.195449,,,
582,4284,Skrzydlna Skrzyżowanie,,49.749965,20.186983,,,
583,4279,Skrzydlna Rynek,,49.75389,20.177898,,,
584,4501,Przenosza,,49.7538812797702,20.1640144307636,,,
585,4270,Wierzbanowa III Skrzyżowanie,,49.7564219273406,20.1298794150352,,,
586,4264,Wierzbanowa II,,49.763909,20.120605,,,
587,4249,Wierzbanowa I,,49.768177,20.116812,,,
588,4243,Wiśniowa I,,49.774897,20.114213,,,
589,4247,Wiśniowa Centrum,,49.787371,20.116469,,,
590,4262,Wiśniowa Michalikówka,,49.798617,20.120153,,,
591,4268,Wiśniowa II,,49.803876,20.121643,,,
592,4263,Wiśniowa III,,49.808896,20.120275,,,
593,4258,Poznachowice D. OSP,,49.813466,20.11771,,,
594,4252,Poznachowice G. Skrz. na Glichów,,49.823919,20.117046,,,
595,4256,Czasław Wżary,,49.833921,20.117458,,,
478,4251,Czasław Myto,,49.846713,20.116972,,,
479,4260,Czasław Dwór,,49.855916,20.118951,,,
480,4245,Czasław,,49.866816,20.115888,,,
481,4241,Dobczyce Marwin,,49.876068,20.110825,,,
482,4239,Dobczyce Kilińskiego,,49.877609,20.102238,,,
483,4238,Dobczyce Wincentego Witosa,,49.879238,20.101004,,,
214,737,Olkusz Rabsztyńska Supermarket,,50.2813613448828,19.5656472444534,,,
1959,2760,Olkusz Rabsztyńska Wulkanizacja,,50.2845440892475,19.5699736627679,,,
215,738,Sikorka Wzgórze,,50.290384959612,19.5778684881297,,,
1960,2762,Rabsztyn Ogródki Działkowe,,50.2971403853906,19.5890789944351,,,
216,739,Rabsztyn,,50.2993461665667,19.596900343895,,,
1961,2764,Troks,,50.3045526674109,19.6111655396405,,,
217,740,Troks I,,50.3012402529403,19.6310506447401,,,
218,741,Troks Szkoła,,50.3027139538553,19.645117589921,,,
219,742,Troks III,,50.3054392674536,19.6508393763014,,,
1962,2766,Braciejówka Cmentarz,,50.3075468941688,19.6556989881645,,,
220,743,Braciejówka,,50.3078640922503,19.6617722511292,,,
221,744,Braciejówka Szkoła,,50.3065005043774,19.6685636043549,,,
222,745,Braciejówka I,,50.3056545370943,19.672855326973,,,
223,746,Michałówka,,50.3108035532107,19.6797215938568,,,
224,747,Michałówka I,,50.3077080111009,19.6886620737587,,,
225,748,Michałówka II,,50.3057989481902,19.7002854507165,,,
226,749,Michałówka III,,50.3065501942638,19.7084937131016,,,
228,750,Jangrot I,,50.3094344367437,19.7288809751269,,,
229,751,Jangrot II,,50.3083529136255,19.7446852616967,,,
230,2782,Jangrot III,,50.3059529641779,19.7553696231071,,,
231,753,Trzyciąż ul. Południowa,,50.3091899555285,19.7662228345871,,,
232,754,Trzyciąż ul. Krakowska,,50.3105842989909,19.766560792923,,,
237,762,Porąbka Skrzyżowanie,,50.3217741245645,19.7935987624001,,,
238,763,Glanów V,,50.3165119398,19.8088160458197,,,
239,764,Glanów IV,,50.3161440434848,19.8163643584768,,,
240,765,Glanów III,,50.3161717459894,19.8202349805642,,,
241,766,Glanów II,,50.3162567117638,19.8249635465377,,,
242,767,Glanów I,,50.3150545752079,19.8319480053162,,,
243,768,Imbramowice Górne,,50.3102106694682,19.8452530562528,,,
1963,2768,Imbramowice Cmentarz Stary,,50.3072654694963,19.8554109320559,,,
244,769,Imbramowice Dolne,,50.3031796706648,19.8697618931955,,,
245,770,Małyszyce,,50.3019334040407,19.8822093430182,,,
246,771,Ściborzyce II,,50.3004181076147,19.8894965439405,,,
247,772,Ściborzyce I,,50.2971936819114,19.9034949858682,,,
1964,2770,Wysocice Kolonia,,50.2903022253259,19.915113949764,,,
248,773,Wysocice Centrum,,50.2846198468028,19.9220709417625,,,
249,774,Gołyszyn Remiza,,50.2734540982835,19.9124193191528,,,
250,775,Gołyszyn Podgaje,,50.2635659762477,19.9073236797261,,,
251,776,Barbarka,,50.2581968160015,19.8987218282083,,,
252,777,Barbarka Poręba Laskowska,,50.2537188224363,19.9056440591812,,,
253,778,Minoga,,50.2446149947153,19.8997137190123,,,
162,779,Minoga Kościół,,50.2413316616665,19.8989921808243,,,
928,2109,Przybysławice II (DW773),,50.23387544,19.90291026,,,
255,782,Przybysławice Krzyżówka,,50.2318581655248,19.9162119626999,,,
1965,2773,Przybysławice,,50.229536831124,19.9151420386701,,,
256,783,Przybysławice Centrum OSP,,50.2251559284515,19.9154555797577,,,
257,784,Przybysławice Skały,,50.2212844683776,19.9115288257599,,,
258,785,Rzeplin Centrum,,50.2120745539199,19.9048756680734,,,
1966,2774,Cianowice Marianów,,50.2093911686153,19.8920348288781,,,
259,786,Cianowice Duże,,50.203536255546,19.880935549736,,,
260,787,Cianowice Szczodrkowice,,50.1962256430419,19.8838698863983,,,
261,788,Cianowice Małe,,50.185791745317,19.8859190940857,,,
262,789,Cianowice Niebyła - Świńczów,,50.1818174724871,19.8883330821991,,,
263,790,Brzozówka Oskarówka,,50.1755273468159,19.895886182785,,,
264,791,Brzozówka Ośrodek,,50.17204698151,19.8981714248657,,,
265,792,Przybysławice Na Stoczki,,50.1635116267573,19.8990243673325,,,
266,793,Przybysławice Na Lipowiec,,50.1596214183892,19.8967552185059,,,
267,794,Przybysławice Centrum,,50.1571881589417,19.895167350769,,,
268,795,Januszowice,,50.1496813919055,19.892812371254,,,
269,796,Trojanowice Słoneczna,,50.1390688552167,19.8992764949799,,,
270,797,Trojanowice Strugi,,50.1346058674018,19.9054616689682,,,
271,798,Zielonki Rozjazd,,50.1293412072002,19.9170434474945,,,
272,799,Zielonki Transformator,,50.1238249000915,19.9202352762222,,,
273,800,Zielonki Urząd Gminy,,50.11829075874,19.9210077524185,,,
274,801,Zielonki Skrzyżowanie,,50.107688460367,19.924344420433,,,
275,802,Glogera Granica Miasta,,50.1042891734643,19.9263292551041,,,
276,803,Glogera,,50.1020320237879,19.9277293682098,,,
2254,2133,Pachońskiego P+R,,50.0944546839202,19.9289274994419,,,
2255,2831,Sosabowskiego,,50.0912015979323,19.9323385314299,,,
279,2142,Pleszowska,,50.0916285942887,19.9360665262971,,,
933,2146,Mackiewicza,,50.08958947,19.94396283,,,
934,2149,Imbramowska,,50.08755784,19.94835683,,,
935,2154,Opolska Estakada,,50.0849025,19.9534336,,,
936,2153,UR Al. 29 listopada,,50.08224705,19.95166613,,,
937,2150,Biskupa Prandoty,,50.0780141,19.94867077,,,
938,2148,Cmentarz Rakowicki Zachód,,50.07612994,19.94657312,,,
939,2151,Muzeum Armii Krajowej,,50.07038812,19.94908463,,,
2099,5028,Jodłówka - Wałki - Zapole,,50.0613885844605,21.1237746477127,,,
2100,5015,Jodłówka - Wałki - Górówka Zachodnia,,50.05894,21.11238,,,
2101,5144,Wola Rzędzińska - Ferma,,50.05282,21.10226,,,
2103,5149,Wola Rzędzińska - Krzyżówka,,50.0317457340701,21.0658442974091,,,
2104,5153,Wola Rzędzińska - Mrozówka (Południowa),,50.02959,21.06156,,,
2105,5166,Wola Rzędzińska - Sklep I,,50.02925,21.05701,,,
2106,5176,Wola Rzędzińska II,,50.02882,21.05125,,,
2107,5169,Wola Rzędzińska - Sklep II,,50.0265,21.04632,,,
2108,5162,Wola Rzędzińska - Polmark,,50.02423,21.04443,,,
662,318,Limanowa ul. Witosa NŻ,,49.725276,20.401973,,,
663,320,Limanowa ul. Tarnowska II,,49.72973,20.39904,,,
664,322,Limanowa ul. Tarnowska I,,49.73657,20.401969,,,
665,323,Młynne Szkoła,,49.7480240025489,20.4078179597855,,,
666,326,Młynne Młyn,,49.7536008304439,20.4160898923874,,,
667,2296,Młynne Podlesie,,49.7563040961106,20.4295063018799,,,
668,2300,Laskowa Załupa,,49.7530324323367,20.4465651512146,,,
669,2301,Laskowa Centrum,,49.7614814845668,20.4496652946539,,,
1923,4525,Laskowa,,49.767825942213,20.4376709461212,,,
670,2294,Laskowa Nagórze,,49.7716209847374,20.4274948273873,,,
671,336,Rozdziele Widoma,,49.785124,20.436491,,,
672,338,Rozdziele Górne,,49.789408,20.440062,,,
673,340,Żegocina,,49.79242,20.427249,,,
674,342,Żegocina Centrum,,49.804574,20.418307,,,
675,343,Żegocina Szkoła,,49.813261,20.42009,,,
676,346,Łąkta Górna Wąsówka Niżna,,49.823873,20.420347,,,
677,348,Łąkta Górna Przetwórnia,,49.829713,20.427427,,,
678,350,Łąkta Górna,,49.835746,20.433545,,,
679,351,Muchówka II,,49.860381,20.453311,,,
680,354,Muchówka I,,49.869391,20.451986,,,
681,356,Połom Duży II,,49.876655,20.459022,,,
682,358,Połom Duży I,,49.885303,20.449977,,,
683,359,Królówka Sośliny,,49.890737,20.449713,,,
684,362,Leksandrowa,,49.898897,20.453664,,,
685,364,Nowy Wiśnicz ul. Limanowska,,49.906843,20.457547,,,
686,365,Nowy Wiśnicz Centrum,,49.91596,20.461317,,,
687,368,Nowy Wiśnicz Liceum,,49.918217,20.459205,,,
688,370,Nowy Wiśnicz CPN,,49.927374,20.452481,,,
689,372,Kopaliny Sady,,49.932442,20.446746,,,
690,374,Kopaliny POM,,49.935302,20.445412,,,
691,376,Bochnia Kurów,,49.945158,20.439538,,,
1924,6072,Bochnia Rydla,,49.9513579756166,20.43367177248,,,
692,378,Bochnia Góra,,49.9542607416896,20.4316413402557,,,
693,380,Bochnia ul. Wiśnicka Elektrownia,,49.955186,20.431557,,,
694,382,Bochnia ul. Wiśnicka,,49.9614323432727,20.4228329658508,,,
695,383,Bochnia ul. Kazimierza W. Szkoła,,49.9637030127299,20.4217466711998,,,
696,386,Bochnia ul. Kazimierza W. Poczta,,49.96709,20.426497,,,
697,4217,Bochnia pl. Gen. Kazimierza Pułaskiego,,49.970102,20.43266,,,
698,387,Bochnia ul. Regis Planty,,49.970295,20.428417,,,
699,395,Bochnia ul. Konstytucji 3-go Maja,,49.97581,20.427483,,,
700,397,Bochnia Dworzec PKP,,49.97688,20.431764,,,
2204,5193,Zgłobice - ul. Słoneczna - Sklep,,49.96929,20.90223,,,
2205,5005,Błonie - Naftobudowa,,49.96598,20.89984,,,
2206,5003,Błonie - Las,,49.96175,20.90311,,,
2207,5008,Błonie - Szkoła,,49.95607,20.90138,,,
2208,5002,Błonie - Granica,,49.94843,20.90259,,,
413,180,Mietniów I,,49.968736,20.0627,,,
414,178,Mietniów Pod Masztem,,49.966665,20.068894,,,
415,173,Mietniów Pod Aniołem,,49.962989,20.075968,,,
416,169,Mietniów Amigówka,,49.961106,20.080809,,,
417,165,Chorągwica Centrum,,49.958440279406,20.0870472192764,,,
418,163,Chorągwica Pod Strażnicą,,49.9557275902164,20.0898206233978,,,
419,156,Chorągwica Krzewiny,,49.9531240471852,20.0887875158435,,,
420,154,Chorągwica Za Górą,,49.9489141320215,20.0856792926788,,,
421,148,Chorągwica Maki,,49.9440640469315,20.0818490982056,,,
422,140,Grajów Przymiarki,,49.9437861447019,20.0934389233589,,,
423,144,Dobranowice V,,49.9437498964668,20.102287530899,,,
424,142,Dobranowice I,,49.9437395398232,20.1124906539917,,,
425,136,Dobranowice Szkoła,,49.9422481598983,20.117222070694,,,
426,127,Dobranowice III,,49.938288,20.121082,,,
427,90,Dobranowice IV,,49.93118,20.124334,,,
428,74,Hucisko II,,49.925041,20.129571,,,
429,70,Hucisko I,,49.920018,20.13487,,,
2692,3409,Kunice II,,49.913638,20.141805,,,
430,39,Kunice,,49.902682,20.147316,,,
431,44,Fałkowice,,49.906615,20.168996,,,
432,45,Gdów,,49.907689,20.18101,,,
434,4389,Gdów Łapanowska,,49.904804,20.205063,,,
435,35,Zręczyce Skrzyżowanie na Stadniki,,49.897895,20.212743,,,
2693,3406,Gdów Rondo Kuliga,,49.89673,20.221099,,,
436,29,Podolany Skrzyżowanie,,49.892629,20.229503,,,
437,27,Podolany,,49.889786,20.229765,,,
438,18,Zagórzany Szkoła,,49.877342,20.233106,,,
439,14,Zagórzany Wymysłów,,49.872974,20.258771,,,
440,12,Łapanów Krakowska,,49.86889,20.274971,,,
441,11,Łapanów Rynek,,49.864401,20.291678,,,
2550,3057,Kalwaria Zebrzydowska Mickiewicza,,49.8708365900487,19.6792848973292,,,
2551,3055,Kalwaria Zebrzydowska Świt,,49.8757912046497,19.6813751689773,,,
2552,3053,Zebrzydowice PGR,,49.8806478050934,19.6764754441751,,,
2553,3051,Zebrzydowice Szkoła,,49.8858724717081,19.672745782164,,,
2554,3049,Zebrzydowice Remiza,,49.8914963957137,19.673111125688,,,
2555,3047,Przytkowice Kapliczka,,49.8989600601921,19.6827295315946,,,
2556,3045,Przytkowice Skrzyżowanie,,49.9062576684414,19.700285424657,,,
2557,3043,Przytkowice Centrum Mleczarnia,,49.912705474982,19.6995200516563,,,
2558,3041,Przytkowice Skrzyżowanie do Leńcz,,49.9206323633075,19.7097890270487,,,
2559,3039,Przytkowice Grabie III,,49.9231356675651,19.7231972204859,,,
2560,3037,Grabie Pętla,,49.9264855135931,19.73575516147,,,
2561,3035,Grabie Kuźnia,,49.9279522070696,19.7406088773554,,,
2562,3033,Grabie Polanka,,49.9337608766901,19.7527337621393,,,
2563,3031,Polanka Hallera Dwór,,49.937535695819,19.7658652359409,,,
2564,3029,Gołuchowice Sklep,,49.9409409261484,19.7738519105364,,,
2565,3027,Gołuchowice Jurczyce,,49.9439657061264,19.7792568490177,,,
2566,3025,Gołuchowice,,49.9463989054689,19.7848843729256,,,
2567,3023,Rzozów Szkoła,,49.9528631832583,19.7951074320865,,,
2568,3020,Rzozów I,,49.9581693687136,19.8016149762781,,,
2569,3019,Rzozów Baseny,,49.9629004781474,19.8062922237682,,,
2570,3017,Skawina Koncentraty,,49.9723319458748,19.8156073701143,,,
2571,3015,Skawina Sąd,,49.9758952975173,19.8177198071781,,,
2572,3060,Skawina Szkoła,,49.9755934474339,19.8229397602144,,,
2573,3012,Skawina Rynek,,49.9752417347524,19.8279320997635,,,
2109,5161,Wola Rzędzińska - Polmark,,50.02433,21.04456,,,
2110,5168,Wola Rzędzińska - Sklep II,,50.02656,21.04643,,,
2111,5175,Wola Rzędzińska II,,50.02864,21.05012,,,
2112,5167,Wola Rzędzińska - Sklep I,,50.02927,21.05717,,,
2113,5154,Wola Rzędzińska - Mrozówka (Południowa),,50.02955,21.06157,,,
2114,5150,Wola Rzędzińska - Krzyżówka,,50.03164,21.06604,,,
2115,5170,Wola Rzędzińska - Szkoła,,50.0467726928027,21.0997501015663,,,
2116,5143,Wola Rzędzińska - Ferma,,50.05286,21.1025,,,
2117,5014,Jodłówka - Wałki - Górówka Zachodnia,,50.05895,21.11279,,,
2118,5029,Jodłówka - Wałki - Zapole,,50.0613455372345,21.1238497495651,,,
2166,5065,Nowodworze - Ośrodek Zdrowia,,49.9703,20.9915,,,
2167,5078,Radlna - Na Górach,,49.96517,20.9817,,,
2168,5080,Radlna - Przedszkole,,49.96384,20.97549,,,
2169,5077,Radlna - Budynek Wielofunkcyjny,,49.96194,20.97364,,,
2170,5103,Świebodzin - Kościół,,49.95754,20.96366,,,
2067,5101,Świebodzin - Kłokowa PKP,,49.95306,20.95731,,,
2187,5060,Lichwin - Centrum,,49.88879,20.95723,,,
2188,5058,Lichwin - Brzezie,,49.89128,20.94686,,,
2189,5084,Rychwałd - Puste,,49.89641,20.93834,,,
2190,5090,Rychwałd,,49.90047,20.92946,,,
2191,5087,Rychwałd - Sklep,,49.90566,20.93378,,,
2192,5089,Rychwałd - Zagórze,,49.90921,20.94258,,,
2193,5083,Rychwałd - Granica,,49.91347,20.94759,,,
2194,5075,Pleśna,,49.92024,20.94596,,,
2195,5069,Pleśna - Rotunda,,49.92467,20.94449,,,
2196,5068,Pleśna - Dworzec PKP,,49.92924,20.94592,,,
2197,5071,Pleśna - Równie,,49.93414,20.94723,,,
2198,5074,Pleśna - Woźniczna,,49.93891,20.94042,,,
2199,5095,Rzuchowa - Granica,,49.94251,20.93394,,,
2200,5099,Rzuchowa - SKR,,49.94565,20.93143,,,
2201,5093,Rzuchowa - Centrum,,49.95194,20.93193,,,
2202,5097,Rzuchowa - Kłokowa,,49.95544,20.94131,,,
2203,5032,Koszyce Małe - ul. Główna - Skalna,,49.9611804234957,20.9427228569984,,,
2676,3163,Miechowice Wielkie,,50.1904443547807,20.7508987633793,,,
2677,3160,Miechowice Wielkie - Wyspa,,50.2037472523542,20.7432955518973,,,
2678,3158,Demblin OSP,,50.21102101875,20.7355135980077,,,
2679,3156,Wola Rogowska - Lipie,,50.2116812776678,20.7063665269425,,,
2680,3154,Wola Rogowska - Remiza,,50.2097136678086,20.6925349555721,,,
2681,3152,Wola Rogowska,,50.2015336973639,20.6922836005688,,,
2682,3150,Wola Przemykowska - Natków,,50.1939048228214,20.6860326097289,,,
2683,3148,Wola Przemykowska - Przykońce,,50.1843258486391,20.6857755102182,,,
2684,3146,Wola Przemykowska - Szkoła,,50.1757472231781,20.6810814142227,,,
2685,3144,Zaborów - Szkoła,,50.1475707607317,20.6887632608414,,,
2686,3142,Zaborów Poczta,,50.147089496283,20.6883662939072,,,
2687,3136,Dołęga,,50.1276618659578,20.6840616470232,,,
2688,3134,Włoszyn,,50.1218252779655,20.6683976331445,,,
2689,3130,Rylowa Centrum,,50.108157525333,20.6683131804382,,,
1154,484,Borzęcin Dolny,,50.1004307875927,20.6971723389453,,,
1155,478,Borzęcin Ciernie,,50.086529,20.697315,,,
1156,476,Borzęcin Młyn II,,50.081937,20.705051,,,
1157,479,Borzęcin Młyn,,50.075887,20.70575,,,
1158,472,Borzęcin Urząd Gminy,,50.067475,20.710073,,,
1159,469,Borzęcin Centrum,,50.0651,20.706021,,,
1160,463,Borzęcin 726,,50.046545,20.6831,,,
1161,464,Borzęcin Iglopol,,50.046438,20.682931,,,
1162,448,Przyborów Remiza,,50.031743,20.663218,,,
1163,453,Przyborów Kościół,,50.034814,20.659969,,,
1164,449,Przyborów Sklep,,50.041344,20.652665,,,
1165,460,Przyborów,,50.045322,20.646507,,,
1166,458,Przyborów Stadion,,50.044303,20.645602,,,
1167,446,Przyborów Sklep,,50.031297,20.640647,,,
1168,444,Mokrzyska Wiślana Wielgoszówka,,50.022608,20.632305,,,
1169,440,Mokrzyska Wiślana,,50.015858,20.629069,,,
1170,435,Mokrzyska Wiślana Jeziorańska,,50.011695,20.62544,,,
1171,433,Mokrzyska Wiślana ABC,,50.008837,20.623981,,,
1172,428,Mokrzyska Wiślana Szkoła,,50.004219,20.619503,,,
1173,420,Mokrzyska Wiślana Januszowska,,50.000063,20.617639,,,
1174,414,Brzesko Kopernika Bagienna,,49.992615,20.616774,,,
1175,408,Brzesko Kopernika Grecja,,49.989156,20.611526,,,
1176,400,Brzesko Solskiego Rondo,,49.978827,20.613971,,,
1177,393,Brzesko Solskiego Jawor,,49.975677,20.615525,,,
2690,3294,Brzesko Uczestników Ruchu Oporu,,49.9695862399935,20.6098499894142,,,
2479,2945,Łukowa Zakręt,,50.0871558822938,20.9742400522348,,,
2480,2943,Łukowa Centrum,,50.0929487618375,20.9755109020071,,,
2481,2941,Łukowa Białasówka,,50.098085725429,20.973972996817,,,
2482,2939,Łukowa Kiosk,,50.1027968172107,20.9712729622839,,,
2483,2937,Łukowa Polany I,,50.1072879206975,20.9725042989121,,,
2484,2935,Łukowa Polany II,,50.110158444803,20.9717819601258,,,
2302,2932,Kobierzyn Pętla,,50.1082406875537,20.9839848115095,,,
2485,2931,Kobierzyn Sklep,,50.1031475067134,20.9962414341508,,,
2486,2929,Breń MPK,,50.1063519432434,21.0124773003651,,,
2487,2925,Lisia Góra Granica,,50.082970898915,21.010862750992,,,
2488,2923,Śmigno Na górze,,50.0816213242536,21.0059280663632,,,
2489,2921,Śmigno Pętla,,50.0800052866198,20.9964316737198,,,
2490,2919,Śmigno Marszówka,,50.0782630786583,20.9869365021255,,,
2491,2916,Pawęzów,,50.0738880717048,20.9856120576708,,,
2492,2908,Pawęzów Szkoła,,50.071430862443,20.9857616450786,,,
2288,2910,Pawęzów Kolonia Górka,,50.0712920715821,20.9732473641283,,,
2289,2912,Pawęzów Kolonia Sklep,,50.0716032180041,20.965897571941,,,
2290,2913,Pawęzów Kolonia Pętla,,50.0719081549464,20.9589928707002,,,
2291,2911,Pawęzów Kolonia Sklep,,50.0715331072032,20.9656148441453,,,
2292,2909,Pawęzów Kolonia Górka,,50.0711612349154,20.9744329004916,,,
2293,2915,Pawęzów Kolonia Skrzyżowanie,,50.0707287912989,20.985185213034,,,
2493,2906,Pawęzów Granica,,50.0667090650309,20.984185144676,,,
2494,2904,Pawęzów Autostrada,,50.06368799844,20.9859231943099,,,
2495,2884,Tarnów Krzyska - Wiśniowa,,50.0578990829066,20.9885091181823,,,
2496,2885,Tarnów Krzyska - Boisko,,50.0556412170672,20.9893178704495,,,
2497,2886,Tarnów Krzyska - Bukowa,,50.0521511411626,20.991040548311,,,
2498,2887,Tarnów Krzyska - Traktorowa,,50.0482210697605,20.991829639521,,,
2499,2888,Tarnów Krzyska - Szkoła,,50.0438811701252,20.9925902135953,,,
2500,2889,Tarnów Krzyska - Olchowa,,50.039871626066,20.9918303765565,,,
2501,2890,Tarnów Krzyska - Cmentarz II,,50.0353304226066,20.9939303577281,,,
2502,2891,Tarnów Krzyska - Cmentarz I,,50.0325504429971,20.995029428673,,,
2503,2892,Tarnów Krzyska - Fatimskiej,,50.028117115671,20.9955106924966,,,
2272,3064,Chobot Leśniczówka (pętla),,50.0802154589283,20.3526020050049,,,
71,4354,Chobot Kapliczka,,50.073656,20.345651,,,
72,4351,Wola Zabierzowska Chałupki,,50.070102,20.333119,,,
73,4347,Zabierzów Bocheński Centrum,,50.067612,20.317944,,,
74,4345,Wola Batorska Zamoglice,,50.064047,20.301685,,,
75,4343,Wola Batorska Mikoniowiec,,50.057609,20.29835,,,
76,4340,Wola Batorska Borek,,50.052866,20.295042,,,
77,4338,Wola Batorska Cmentarz,,50.052741,20.288901,,,
78,4337,Wola Batorska Kościół,,50.052818,20.275844,,,
79,4334,Wola Batorska Żwirownia,,50.052743,20.26564,,,
80,4332,Wola Batorska Ruskie,,50.053111,20.257594,,,
81,4329,Niepołomice Słoneczna,,50.04639,20.245468,,,
82,4324,Niepołomice Jazy,,50.043662,20.237236,,,
83,4312,Niepołomice Grobla,,50.041964,20.22888,,,
84,4306,Niepołomice Batorego,,50.04016,20.220364,,,
87,4295,Niepołomice Kościuszki,,50.028765,20.205775,,,
88,4291,Niepołomice Płaszowska I,,50.031082,20.197962,,,
89,4287,Niepołomice Wodna,,50.033423,20.192682,,,
90,4285,Niepołomice Diesla,,50.033942,20.188281,,,
91,4281,Niepołomice Diesla MAN,,50.030501,20.178858,,,
92,4278,Podłęże Trefl,,50.025409,20.177864,,,
93,4276,Podłęże PSZOK,,50.025056,20.171653,,,
886,916,Rączna Remiza,,50.00802566,19.76741574,,,
887,917,Rączna Cracovia Centrum Treningowe,,50.0038757940638,19.766027033329,,,
848,4524,Rączna Osiedle,,50.00136974,19.75540902,,,
888,918,Jeziorzany Rondo,,49.99404626,19.77577895,,,
889,919,Jeziorzany Pętla,,49.98731246,19.77843804,,,
890,920,Jeziorzany Górskie Domy,,49.98162859,19.76669284,,,
891,921,Wołowice Grotowa Skrzyżowanie,,49.98465779,19.75473315,,,
892,922,Wołowice Zawierzbie,,49.98176644,19.7450024,,,
893,923,Wołowice Kapliczka,,49.98654655,19.72801055,,,
894,924,Wołowice Remiza,,49.98905918,19.72677242,,,
895,925,Wołowice Sklep,,49.98936626,19.71987941,,,
896,926,Wołowice Pichonówka,,49.98852313,19.71171381,,,
897,927,Wołowice Niwka,,49.98852798,19.70244794,,,
898,928,Czernichów Stacja Paliw,,49.99208291,19.68862048,,,
899,929,Czernichów Studzienki,,49.99209524,19.6854365,,,
835,866,Czernichów Rynek,,49.98731434,19.67637153,,,
900,2078,Czernichów Zakamycze,,49.99324338,19.66653097,,,
901,2077,Czernichów Ratanice Most,,49.99528798,19.65738135,,,
902,2075,Czernichów Ratanice,,49.99695696,19.65078907,,,
903,2072,Kłokoczyn Szkoła,,49.99515996,19.63901073,,,
2005,2792,Kłokoczyn Machaczki,,49.9964031789411,19.6325059130487,,,
904,2071,Rusocice Łęg,,49.99541092,19.6182869,,,
905,2068,Rusocice Skład,,49.99514373,19.60620403,,,
906,2067,Rusocice Na Brzegu,,49.99980543,19.60190011,,,
907,2065,Łączany Zapora,,49.98542344,19.59333594,,,
908,2063,Łączany Skład,,49.98395256,19.58860865,,,
909,2061,Łączany Plac św. Floriana,,49.98293804,19.58194842,,,
824,2059,Łączany Plac św. Jana Pawła II,,49.98561971,19.57730167,,,
910,2054,Łączany Granica,,49.98514874,19.56815631,,,
911,2051,Ryczów Łęg,,49.98532862,19.56429617,,,
912,2044,Ryczów Za Torami,,49.98340974,19.56015992,,,
913,2043,Ryczów Za Kościołem,,49.9810814741011,19.553325176239,,,
914,2040,Ryczów PKP,,49.98773737,19.54131098,,,
915,2038,Ryczów Wróblówki,,49.98551339,19.53370825,,,
817,2037,Spytkowice Rynek,,49.99696999,19.51116209,,,
67,4372,Ispina Most,,50.1174686657672,20.3839892148972,,,
68,4378,Ispina Przedszkole,,50.11645,20.382976,,,
69,4370,Ispina Leśniczówka,,50.113429,20.378661,,,
70,4357,Chobot Leśniczówka,,50.080771,20.353342,,,
2720,3314,Bukowina Tatrzańska Dolna,,49.357873923002,20.1237590984334,,,
1046,931,Bukowina Tatrzańska Kościół,,49.34236532,20.10783881,,,
1047,932,Bukowina Tatrzańska Poczta,,49.33665311,20.0992694,,,
1048,933,Bukowina Tatrzańska Klin,,49.32955394,20.0959245,,,
1049,934,Poronin Stasikówka,,49.33682274,20.06270206,,,
1050,935,Poronin Kośne Hamry,,49.332255,20.03955088,,,
1051,936,Poronin Kośle,,49.33139655,20.02566095,,,
1052,937,Poronin Jesionkówka,,49.33167117,20.01586334,,,
1053,938,Poronin Dom Kultury,,49.33691517,20.0061678,,,
1054,939,Poronin Misiagi,,49.33290872,20.00093239,,,
1055,940,Zakopane Ustup,,49.32068609,19.98563375,,,
1056,941,Zakopane Spyrkówka,,49.30975833,19.96826004,,,
1057,942,Zakopane ul. Kasprowicza,,49.3076678,19.96089136,,,
2273,3291,Zakopane ul. Chramcówki,,49.3043138541845,19.9593661001087,,,
2225,944,Zakopane Dworzec,,49.3012326663424,19.9626570940018,,,
1060,945,Zakopane Aleja 3 Maja Dolne,,49.2966710098508,19.953156709671,,,
1061,946,Zakopane Górka,,49.29623056,19.94433794,,,
1062,947,Zakopane Szymaszkowa,,49.29348685,19.93278903,,,
1063,948,Zakopane Czajki,,49.29151999,19.92565773,,,
1064,949,Kościelisko Sobiczkowa,,49.29109177,19.913854,,,
1065,950,Kościelisko Karpielówka,,49.29081854,19.90679944,,,
1066,951,Kościelisko WDW,,49.29096716,19.90329297,,,
1067,952,Kościelisko Wojdyłówka,,49.29122275,19.89982928,,,
1068,953,Kościelisko Ośrodek Zdrowia,,49.29145915,19.89416895,,,
1069,954,Kościelisko Szeligówka,,49.29042652,19.88796637,,,
1070,955,Kościelisko Chotarz Polany,,49.28515624,19.8883585,,,
1071,956,Kościelisko Chotarz Hajduk,,49.28072254,19.8871435,,,
1072,957,Kościelisko Nędzówka,,49.27700515,19.88400948,,,
1073,958,Kościelisko Urząd Gminy,,49.27657935,19.87820167,,,
1074,959,Kościelisko Dolina Kościeliska,,49.2765271,19.86681683,,,
1075,960,Witów Biały Potok,,49.2855118,19.85412176,,,
1076,961,Witów Dolina Chochołowska Skrzyżowanie,,49.29017523,19.85011859,,,
1077,962,Witów Długoszówka,,49.30115087,19.83827672,,,
1078,963,Witów Kojsówka Niżna,,49.3111414,19.83195335,,,
1079,964,Witów Wspólnota Leśna,,49.31798551,19.82729677,,,
1080,965,Witów II,,49.3243047,19.82492714,,,
1081,966,Witów Szkoła,,49.33479734,19.82331205,,,
1082,967,Witów,,49.34518882,19.82259735,,,
1083,968,Witów Dolny (Chochołowskie Termy),,49.35107068,19.82076313,,,
1084,969,Chochołów Górny,,49.3568491,19.81906822,,,
1085,970,Chochołów I,,49.36622246,19.81788847,,,
1086,971,Chochołów Granica,,49.36496535,19.80447421,,,
1928,8999,Suchá Hora - št.hr,,49.3656489322467,19.7974515996286,,,
1929,8997,Suchá Hora - Jednota,,49.3659636460034,19.7882661281468,,,
1930,8995,Suchá Hora - ZŠ,,49.3657027293403,19.7831834759058,,,
1931,8993,Hladovka - byt.RD,,49.3680474531009,19.7679649957241,,,
1932,8991,Hladovka - Jednota,,49.3693402963561,19.7574606413789,,,
1933,8989,Hladovka - dol.koniec,,49.368426029367,19.7488939830469,,,
1934,8987,Vitanová - RD,,49.3636734282959,19.7316801901787,,,
1935,8985,Vitanová - rázc.,,49.3587734316853,19.7201144808623,,,
1936,8983,Čimhová - byt.RD,,49.3616996833731,19.6993842042451,,,
1937,8981,Čimhová - Jednota,,49.3615022323368,19.6920103822406,,,
1938,8979,Liesek - vyš.koniec,,49.3619216163746,19.6795907353499,,,
1939,8977,Liesek - Jednota,,49.3602852689178,19.6730501830783,,,
1940,8975,Liesek - dol.koniec,,49.359306685833,19.664199523787,,,
1941,8973,Trstená - Panasonic,,49.3640851430337,19.6239174859168,,,
1942,8971,Trstená - SAD,,49.3638962631943,19.6174478251348,,,
1943,8969,Trstená autobusová stanica,,49.3609948562794,19.6144640098095,,,
2327,3120,Łaganów III (Cavita),,50.177635991281,20.2833212972691,,,
2328,3118,Łaganów I Most,,50.1734491525886,20.28077004644,,,
2329,3116,Łaganów II (skrz. do Więckowic),,50.1650792396827,20.2827251224476,,,
2330,3114,Rudno Górne,,50.1582690343176,20.2799457227658,,,
2331,3112,Rudno Górne Skrzyżowanie,,50.1438131689353,20.2887608679908,,,
2332,3110,Stręgoborzyce,,50.132179973493,20.2939713798621,,,
2333,3108,Stręgoborzyce Sklep,,50.125636486401,20.2960208382091,,,
2334,3106,Stręgoborzyce Skrzyżowanie,,50.1189807864937,20.2972927399084,,,
2335,3104,Wawrzeńczyce Bank,,50.1104766163312,20.2975596254422,,,
2344,3086,Cło,,50.0797414522976,20.1862857920805,,,
2345,3084,Szlifierska,,50.0725723761175,20.1896506127294,,,
2346,3082,Zakępie,,50.067721262356,20.1895993871124,,,
2347,3080,Ks. Luzara,,50.0625486625268,20.1947652944476,,,
2348,3078,Betonowa,,50.0556901474058,20.2026499319719,,,
2349,3076,Wolica Most,,50.0520850780805,20.2062303886339,,,
2350,3074,Niepołomice Kolejowa,,50.0441053034035,20.2120819815176,,,
2351,3069,Niepołomice Boryczów,,50.0229389754448,20.1980892895706,,,
2352,3067,Niepołomice Wielicka,,50.0191193826604,20.1913241260828,,,
1648,2156,Nowy Targ PKP ul. Kolejowa,,49.4763159,20.01470328,,,
1650,2159,Nowy Targ al. Tysiąclecia II,,49.4773687,20.03066214,,,
1651,2161,Nowy Targ al. Tysiąclecia III Hala Gorce,,49.47740673,20.03505169,,,
1652,2163,Nowy Targ ul. Jana Pawła II,,49.47692046,20.05170344,,,
1653,2173,Waksmund III,,49.48199193,20.07312435,,,
1654,2177,Waksmund II Kościół,,49.4806092,20.07890201,,,
1655,2180,Waksmund I,,49.47898202,20.08589705,,,
1656,2184,Ostrowsko,,49.47647407,20.09617271,,,
1657,2208,Łopuszna,,49.47155007,20.12479862,,,
1658,2222,Harklowa Grapka,,49.46969307,20.14940054,,,
1659,2224,Harklowa,,49.47270518,20.17009742,,,
1660,2226,Knurów,,49.47253159,20.18345122,,,
1661,2232,Knurów Przy Krzyżu,,49.47771148,20.18679873,,,
1662,2230,Knurów Nad Sadami,,49.48287666,20.18475167,,,
1663,2234,Ochotnica Górna Przełęcz,,49.5037111,20.18784409,,,
1664,2227,Ochotnica Górna Przełęcz I,,49.50903202,20.18384096,,,
1665,2236,Ochotnica Górna Stalmachówka,,49.50784655,20.19083745,,,
1666,2237,Ochotnica Górna Ustrzyk,,49.50665602,20.20236677,,,
1667,2240,Ochotnica Górna Czepiele,,49.50653652,20.21430384,,,
1668,2241,Ochotnica Górna Szpuntówka,,49.50410223,20.22587035,,,
1669,2243,Ochotnica Górna Białówka,,49.50449197,20.23291677,,,
1671,2249,Ochotnica Górna Gronie,,49.51718515,20.26439355,,,
2640,2841,Ochotnica Górna Piszczkówka,,49.5193764011817,20.2765028943665,,,
1672,2256,Ochotnica Dolna Skrodne,,49.51860371,20.28777763,,,
1673,2260,Ochotnica Dolna Ośrodek Zdrowia,,49.5243254,20.30914914,,,
1674,2266,Ochotnica Dolna Urząd Gminy,,49.52534919,20.32043067,,,
1675,2273,Ochotnica Dolna Kościół,,49.52638928,20.33259123,,,
2641,2839,Ochotnica Dolna Gardonie,,49.5266542890625,20.3527947331698,,,
1676,2276,Ochotnica Dolna Rola,,49.52817162,20.36129126,,,
1677,2279,Ochotnica Dolna Brysiówka,,49.52359479,20.37369534,,,
1678,2281,Ochotnica Dolna Ligasy,,49.52154504,20.38032418,,,
1679,2282,Tylmanowa Rzeka,,49.51707964,20.39952751,,,
1680,2290,Zabrzeż Wietrznice,,49.5211851,20.41700266,,,
1681,2285,Zabrzeż Kościół,,49.54061313,20.40455729,,,
1682,2287,Zabrzeż Skrzyżowanie,,49.54570587,20.40535736,,,
1683,2289,Zabrzeż Obłazy,,49.54958561,20.40875549,,,
1684,2293,Czerniec,,49.5532208,20.42520858,,,
1686,2299,Łącko Pożogi,,49.5633081,20.44349388,,,
1687,2305,Łącko Wolaki,,49.57124437,20.46010484,,,
1688,2309,Czarny Potok Jeżówka,,49.57538945,20.47357487,,,
1689,2311,Czarny Potok,,49.57940401,20.48312638,,,
1690,2316,Czarny Potok - Wolica Kapliczka,,49.5770728,20.49170174,,,
1691,2321,Olszana Wolica,,49.57655141,20.50116775,,,
1692,2323,Olszana Szkoła,,49.57014972,20.51912667,,,
1693,2326,Olszana I,,49.56457891,20.52509134,,,
1694,2328,Olszana Cmentarz,,49.55890073,20.53240462,,,
1695,2330,Olszanka Szkoła,,49.55633632,20.54349514,,,
1696,2332,Olszanka,,49.55557834,20.54707399,,,
1697,4522,Olszanka Dolna,,49.55473261,20.55405599,,,
1698,2334,Olszanka I,,49.55394735,20.56434307,,,
1699,2337,Naszacowice Obwodnica,,49.55211144,20.57149008,,,
1700,2339,Gołkowice Dolne Skrzyżowanie,,49.54624751,20.57754079,,,
1701,2341,Gołkowice Dolne RSP,,49.54739868,20.58418133,,,
1702,2343,Gołkowice Dolne I,,49.55124212,20.59403569,,,
1703,2345,Mostki,,49.55615185,20.6011296,,,
1704,2347,Mostki Poczekaj,,49.56013758,20.60931577,,,
1705,2349,Stary Sącz ul. Piłsudskiego II,,49.56480596,20.62141531,,,
1706,2351,Stary Sącz ul. Piłsudskiego,,49.56587741,20.62686129,,,
1707,2355,Stary Sącz Rynek,,49.5641124605479,20.635558962822,,,
2642,3213,Stary Sącz Jana Pawła II - Wiadukt,,49.5660457634496,20.6475786970181,,,
2643,3211,Stary Sącz Jana Pawła II - Przystań,,49.5665867904887,20.6537692480468,,,
2644,3208,Nowy Sącz Węgierska - Przystań,,49.5697501657506,20.660397796869,,,
2645,3206,Nowy Sącz Węgierska - Szkoła,,49.5792434033683,20.6660716062927,,,
2646,3204,Nowy Sącz Węgierska - Carbon,,49.5843977699259,20.6726029184322,,,
2647,3200,Nowy Sącz Węgierska - Dąbrówki,,49.5928466736731,20.679233522903,,,
2648,3198,Nowy Sącz Węgierska - Piramowicza,,49.5986809422495,20.6850010389605,,,
2649,3196,Nowy Sącz Węgierska - ZUS,,49.6039128609925,20.6901735480265,,,
2068,5102,Świebodzin - Kościół,,49.95754,20.96379,,,
2069,5076,Radlna - Budynek Wielofunkcyjny,,49.9621,20.97379,,,
2070,5081,Radlna - Przedszkole,,49.96385,20.9756,,,
2071,5079,Radlna - Na Górach,,49.96519,20.98226,,,
2072,5066,Nowodworze - Ośrodek Zdrowia,,49.97034,20.99162,,,
955,4380,Olkusz Al. Tysiąclecia,,50.2716815155372,19.5901814103127,,,
956,813,Sieniczno ul. Olkuska,,50.2676681032275,19.6101343631744,,,
957,814,Sieniczno ul. Ojcowska,,50.26747124,19.61520685,,,
958,815,Zimnodół Wiśliczka,,50.27018151,19.62620753,,,
959,816,Kosmolów I,,50.27189587,19.64144445,,,
960,817,Kosmolów Szkoła,,50.27163567,19.64998121,,,
961,818,Kosmolów Sklep,,50.2715820843763,19.6544337272644,,,
962,819,Kosmolów III,,50.27133025,19.6645874,,,
963,820,Sułoszowa Kółko,,50.27674609,19.67896591,,,
964,821,Sułoszowa Zachodnia,,50.2765233,19.68626983,,,
965,822,Sułoszowa Remiza,,50.274023230779,19.698657989502,,,
966,823,Sułoszowa Sklep,,50.27257386,19.71151424,,,
967,824,Sułoszowa Bar,,50.26975513,19.72599607,,,
968,825,Sułoszowa Stopina Góra,,50.26496492,19.73716385,,,
969,826,Sułoszowa Szkoła,,50.26156726,19.74392409,,,
970,827,Sułoszowa Grobla,,50.25531187,19.75407232,,,
971,828,Sułoszowa Zagrody,,50.2494512,19.76084817,,,
972,829,Sułoszowa I/Stawy/,,50.24888956,19.7699021,,,
973,830,Sułoszowa Pieskowa Skała,,50.24493128,19.7780044,,,
974,831,Sułoszowa Młyny,,50.24065453,19.79203807,,,
975,832,Wola Kalinowska Młynnik,,50.23788086,19.80992648,,,
976,833,Wola Kalinowska,,50.23598883,19.81681,,,
977,834,Skała Grodzisko,,50.22671734,19.83123756,,,
979,836,Skała Rzeplińska,,50.22557521,19.85708139,,,
980,837,Skała Wieś,,50.21297584,19.86685829,,,
981,838,Cianowice Poręba,,50.20967711,19.87266976,,,
2163,5179,Zawada - Granica,,49.97915,20.99987,,,
2164,5178,Zawada - Bąbel,,49.98079,21.01027,,,
2165,5183,Zawada - Szkoła,,49.97965,21.01415,,,
470,4460,Szczyrzyc Szpital,,49.778526477632,20.1907516645208,,,
471,4461,Szczyrzyc,,49.7825962435329,20.188586186849,,,
472,4462,Pogorzany II,,49.7982443113962,20.173961520195,,,
473,4463,Krzesławice,,49.8029235209854,20.1714102252501,,,
474,4464,Dąbie,,49.8268661152125,20.168890560258,,,
475,4465,Dąbie Skrzyżowanie,,49.8350944435495,20.1784623233141,,,
476,4466,Komorniki,,49.8407531063889,20.1607594891186,,,
477,4452,Raciechowice,,49.8451298465805,20.1402005553246,,,
484,2188,Dziekanowice Skrzyżowanie,,49.8969387510025,20.101789711311,,,
485,2191,Niezdów,,49.8987208371937,20.1096503919403,,,
486,2204,Winiary,,49.9009154508092,20.1218365980385,,,
487,2220,Winiary OSP,,49.9001286978634,20.1333475112915,,,
488,2219,Winiary I,,49.9043232729791,20.1315366101108,,,
489,2216,Winiary II,,49.907288294278,20.1271062712195,,,
490,2214,Hucisko Las,,49.9149718146895,20.1263516635944,,,
491,2199,Hucisko Kapliczka,,49.91972619042,20.1189655333864,,,
492,2197,Grajów Żakowa,,49.9226060596675,20.1172144744867,,,
493,2195,Grajów Dębówka,,49.9245585623758,20.1157160434153,,,
494,2192,Grajów V Boisko,,49.9287787701401,20.1098084449768,,,
495,97,Grajów os. Katy,,49.933706,20.108153,,,
496,113,Grajów IV Za Szkołą,,49.936878,20.104097,,,
497,122,Grajów III Szkoła,,49.937929,20.10239,,,
498,132,Grajów II Sklep,,49.939898,20.09832,,,
499,2210,Sułów II,,49.9514154922674,20.1250056512857,,,
500,2212,Sułów I,,49.9572875777363,20.1261162757874,,,
501,2207,Biskupice II,,49.9588682215044,20.1244103908539,,,
502,2200,Biskupice OSP,,49.964865912909,20.1207089424133,,,
503,2205,Biskupice III,,49.9725804994282,20.1219106093306,,,
2044,5056,Koszyce Wielkie - ul. Tarnowska - Szkolna,,49.97443,20.94622,,,
2045,5030,Koszyce Małe - ul. Główna - Remiza,,49.96917,20.9466,,,
2046,5033,Koszyce Małe - ul. Główna - Szkoła,,49.96522,20.94508,,,
2147,5035,Koszyce Małe - ul. Główna - Wolska,,49.96105,20.94248,,,
2148,5096,Rzuchowa - Kłokowa,,49.95469,20.93976,,,
2149,5092,Rzuchowa - Centrum,,49.95214,20.93233,,,
2150,5098,Rzuchowa - SKR,,49.94568,20.93127,,,
2151,5094,Rzuchowa - Granica,,49.94212,20.93419,,,
2152,5073,Pleśna - Woźniczna,,49.93877,20.94066,,,
2153,5070,Pleśna - Równie,,49.93413,20.94716,,,
2154,5067,Pleśna - Cmentarz,,49.92714,20.9445,,,
2155,5072,Pleśna - Urząd Gminy,,49.92296,20.94426,,,
2156,5082,Rychwałd - Granica,,49.91348,20.94751,,,
2157,5088,Rychwałd - Zagórze,,49.90925,20.94253,,,
2158,5086,Rychwałd - Sklep,,49.90575,20.93379,,,
2159,5091,Rychwałd,,49.90045,20.9294,,,
2160,5085,Rychwałd - Puste,,49.89632,20.9381,,,
2161,5059,Lichwin - Brzezie,,49.89124,20.94713,,,
2162,5061,Lichwin - Centrum,,49.88859,20.95753,,,
2010,5027,Jodłówka - Wałki - Szpic I,,50.05687,21.14994,,,
2011,5022,Jodłówka - Wałki - Pętla,,50.05949,21.15791,,,
2012,5026,Jodłówka - Wałki - Szpic,,50.05687,21.14972,,,
2047,5038,Koszyce Małe - ul. Wolska - Główna,,49.96151,20.94049,,,
2048,5044,Koszyce Małe - ul. Wolska,,49.9628,20.9333,,,
2049,5042,Koszyce Małe - ul. Wolska - Klub,,49.96249,20.9242,,,
2050,5036,Koszyce Małe - ul. Wolska - Dęby,,49.96446,20.91812,,,
2051,5040,Koszyce Małe - ul. Wolska - Jałowce,,49.96729,20.91204,,,
2054,5200,Zgłobice - ul. Topolowa - SKR,,49.9745838302913,20.9060195088387,,,
2055,5196,Zgłobice - ul. Topolowa - Kolorowa,,49.97519,20.91153,,,
2056,5198,Zgłobice - ul. Topolowa - Miła,,49.97556,20.9165,,,
2057,5195,Zgłobice - ul. Topolowa - Brzezinki,,49.97792,20.92807,,,
2058,5049,Koszyce Wielkie - ul. Kędronia - Sklep,,49.98033,20.93486,,,
2059,5047,Koszyce Wielkie - ul. Kędronia - Remiza,,49.9801949346324,20.9416741132736,,,
2922,5221,Kęty ZML,,49.8662901806347,19.2269194186719,,,
2923,5219,Kęty Osiedle,,49.8768079606922,19.2240074297655,,,
2924,5223,Bulowice Zamek,,49.8793768767399,19.2625018115862,,,
2925,5217,Bulowice Kościół,,49.87701592,19.2814633387176,,,
2801,3366,Andrychów Górnica,,49.8592237226138,19.3232347502186,,,
2926,5215,Andrychów Osiedle WSW,,49.85610390726,19.333245610174,,,
2802,3368,Inwałd Kościół,,49.8635832211293,19.3953918665337,,,
2803,3370,Inwałd Sklep (Park Rozrywki),,49.8672499364917,19.4097100283976,,,
2804,3372,Chocznia PKP,,49.8747554025606,19.4544182766338,,,
2805,3374,Wadowice Rondo im Generała Czumy,,49.8874315672754,19.4817667822726,,,
2807,3377,Klecza Dolna,,49.8699906256678,19.5472039900394,,,
2808,3379,Barwałd Dolny,,49.86570558266,19.5756453813859,,,
2809,3381,Barwałd Średni,,49.8651231329693,19.5977675189618,,,
2810,3383,Barwałd Górny,,49.864204413313,19.6180438711673,,,
2811,3385,Brody Skrzyżowanie,,49.8660756675582,19.693105128079,,,
2812,3387,Izdebnik II,,49.8690149047573,19.7635247227213,,,
2813,3389,Biertowice Skrzyżowanie,,49.8775099951159,19.7934727835209,,,
2814,3391,Krzywaczka,,49.8920587511233,19.828574453443,,,
2815,3393,Głogoczów II Stawy,,49.904138854828,19.8544609434028,,,
1878,6031,Biskupice Rymarówka,,49.9724534056578,20.1238095760345,,,
1879,6032,Szczygłów VI,,49.9703140654017,20.1342617955467,,,
1880,6033,Szczygłów V ,,49.9711034443138,20.138737191476,,,
1881,6034,Szczygłów IV,,49.970478746215,20.1415902385858,,,
1882,6035,Szczygłów III,,49.971181498551,20.1482315277387,,,
1883,6036,Szczygłów II,,49.9710193145538,20.1538915969229,,,
1884,6037,Szczygłów I,,49.9710405568722,20.1584527962506,,,
1885,6038,Zabłocie III - Pętla autobusowa,,49.9692469717093,20.1738560162773,,,
1886,6039,Zborówek I ,,49.9619736453094,20.1747437432775,,,
1887,6040,Surówki I,,49.9617071491017,20.1895353602981,,,
1888,6041,Wiatowice V,,49.9571559315616,20.1993390441414,,,
1889,6042,Wiatowice IV,,49.9502162722594,20.2078311026289,,,
1986,6068,Liplas II (OSP),,49.9315085161497,20.210076123476,,,
1890,6043,Liplas III,,49.930765066873,20.2108210119482,,,
1891,6044,Liplas IV,,49.9303776362508,20.2167193818341,,,
1892,6045,Liplas VII,,49.9289212058764,20.2330700359122,,,
1893,6046,Niegowić V (Przedszkole),,49.9290642640561,20.2399663840306,,,
1894,6047,Niegowić III (Rynek),,49.9356756501378,20.2372639422456,,,
1895,6048,Niegowić I (Cmentarz),,49.9405310318003,20.2386382699877,,,
1896,6049,Krakuszowice I,,49.9507569713142,20.2505233200239,,,
1897,6050,Cichawa I,,49.9506357620503,20.2537974021725,,,
1898,6051,Cichawa II (OSP),,49.9519277788987,20.2618272689981,,,
1899,6052,Cichawa III,,49.950646147708,20.273675671929,,,
1900,6053,Książnice I,,49.9499229664301,20.2827043756703,,,
1901,6054,Książnice III,,49.9504135385941,20.2931207591135,,,
1902,6055,Książnice II,,49.9494669426863,20.2970828991821,,,
1903,6056,Książnice II (Szkoła),,49.9497892839492,20.302359291429,,,
1904,6057,Książnice III (DW967) ,,49.9506674394525,20.3114415348014,,,
1905,6058,Gierczyce Siedlec,,49.9517797421103,20.3198255730675,,,
1906,6059,Siedlec Czernychowiec,,49.9553067850617,20.3205401353442,,,
2736,3419,Tarnów Gumniska - Sąd,,50.0089461691678,20.9958049247124,,,
2737,3420,Tarnów Gumniska - Krogulskiego,,50.008323884212,20.9999328443955,,,
2738,3421,Tarnów Braci Saków - Park,,50.0074510515647,21.0073891509088,,,
2739,3423,Tarnów Braci Saków - Potoczka,,50.005645524398,21.0168075885893,,,
2740,3425,Tarnów Braci Saków - Granica miasta ,,50.0044695818123,21.0211203777047,,,
2741,3427,Skrzyszów Wiadukt,,49.999856771779,21.0323160857817,,,
2742,3429,Skrzyszów Tartak,,49.9972163862195,21.0424294667038,,,
2743,3431,Skrzyszów Most,,49.9960705138594,21.0498745104697,,,
2744,3434,Skrzyszów Kościół,,49.9950738140249,21.0571167764164,,,
2745,3435,Skrzyszów Zabagnie,,49.9910470050387,21.0728403166094,,,
2746,3437,Skrzyszów Górny,,49.9886708387416,21.0824568449456,,,
2747,3439,Skrzyszów Szkoła,,49.9872510586005,21.0972146108769,,,
2748,3441,Szynwałd Skrzyszów Granica,,49.9868326112791,21.1074919669592,,,
2749,3443,Szynwałd Japonia,,49.9833462238188,21.1144282139459,,,
2750,3445,Szynwałd Szkoła,,49.9739392339064,21.1151348026238,,,
2751,3447,Szynwałd Magazyny,,49.9701900249047,21.119620436737,,,
2752,3449,Szynwałd Ośrodek Zdrowia,,49.9642219727345,21.1255460316356,,,
2753,3451,Szynwałd Transformator,,49.9565190010406,21.1206152189685,,,
2754,3453,Szynwałd Granica,,49.9482482244774,21.1264868294062,,,
2755,3456,Zalasowa Tarnowska - Ogrodowa,,49.9425231809339,21.1297825142602,,,
2756,3457,Zalasowa Niżna,,49.9361472016327,21.1258052610864,,,
2757,3460,Zalasowa Górna,,49.9240813522989,21.1218222633274,,,
2758,3462,Zalasowa Skrzyżowanie,,49.9150926133616,21.1372304845135,,,
2759,3463,Zalasowa Granica,,49.9045941699065,21.1397795712021,,,
2760,3466,Ryglice,,49.8931416223892,21.1373408302431,,,
2761,3468,Ryglice Szkoła,,49.8827698952833,21.136656770294,,,
2721,3416,Nowy Targ Jana Pawła II,,49.4759720257705,20.0515348885639,,,
2722,3417,Gronków Górny,,49.4372159033812,20.0824463794906,,,
2723,3298,Groń,,49.4228665461732,20.0902709486175,,,
2724,3300,Białka Tatrzańska Grapa,,49.409786997273,20.1000603762922,,,
2725,3302,Białka Tatrzańska Dolna,,49.401181309,20.105082658,,,
2726,3304,Białka Tatrzańska Burkat,,49.3942235044677,20.1051297776152,,,
2727,3306,Białka Tatrzańska Szkoła,,49.3890062742159,20.105084653306,,,
2728,3308,Białka Tatrzańska Środkowa,,49.3837543784347,20.1073748298581,,,
2729,3311,Białka Tatrzańska Korkoszówka,,49.3775839163671,20.1121830946123,,,
2730,3312,Białka Tatrzańska Kaniówka,,49.3707879291219,20.1132562643833,,,
2731,3317,Czarna Góra,,49.357145766,20.1319615186,,,
2732,3319,Jurgów I,,49.342414768919,20.1359193807686,,,
2733,3321,Jurgów Remiza,,49.3398791998403,20.1387829061058,,,
2734,3323,Jurgów II,,49.3343770668661,20.1455551593477,,,
2700,3325,Jurgów Stacja Narciarska,,49.3187897957267,20.1553433181674,,,
2904,3326,Jurgów Granica,,49.3047608670733,20.1604604082224,,,
2905,3328,Tatr.Javorina Podspády,,49.2816418013709,20.1746280332936,,,
2906,3330,Ždiar Strednica,,49.2737421787305,20.2292667686596,,,
2907,3332,Ždiar Odbočka,,49.2734312394767,20.245063931747,,,
2908,3334,Ždiar Tatra,,49.269574769051,20.2667646603048,,,
2909,3336,Ždiar Píla,,49.2710871644608,20.2760759004955,,,
2910,3340,Ždiar materská škola,,49.2664410363735,20.2918538957574,,,
2911,3342,Ždiar rázcestie Bachledova dolina,,49.2636443486256,20.299441428592,,,
2912,3345,Vysoké Tatry Tatr. Kotlina Kardolina,,49.2462768449899,20.3103475162331,,,
2913,3346,Vysoké Tatry Tatr.Kotlina Bel.jask.,,49.2290800508883,20.317916529403,,,
2914,3348,"Vysoké Tatry Tatr. Kotlina, Čarda ",,49.2248925783453,20.324250778971,,,
2915,3350,Vysoké Tatry Kežmarské Žľaby,,49.1940274852959,20.3004927719242,,,
2916,3352,Vysoké Tatry Tatr.Lomnica Biela Voda,,49.1879367176715,20.2926690689311,,,
2917,3354,Vysoké Tatry Tatranské Matliare ,,49.1751972910037,20.2938969363753,,,
2889,3356,Vysoké Tatry Tatr. Lomnica aut.st.,,49.1659876582999,20.2813069495551,,,
2918,3358,Vysoké Tatry Stará Lesná TEŽ ,,49.155203146544,20.270580513892,,,
2919,3359,Vysoké Tatry Tatr. Lesná,,49.150328374137,20.2560329127133,,,
2920,3361,Vysoké Tatry Horný Smokovec rázc.,,49.1424070783375,20.2393406688116,,,
2921,3363,Vysoké Tatry Horný Smokovec Pekná vyhliadka,,49.1397321716524,20.2335922388643,,,
2884,3365,Vysoké Tatry Starý Smokovec aut.st.,,49.1405371403785,20.2252294013928,,,
1464,1102,Myślenice ul. Słowackiego,,49.8363096166969,19.9577754735947,,,
1465,1103,Osieczany Skrzyżowanie,,49.83779416,19.97396528,,,
1466,1104,Osieczany Kmiecie,,49.84055415,19.97852775,,,
1467,1105,Osieczany Betoniarnia,,49.84432872,19.98885289,,,
1468,1106,Droginia Osiedle,,49.8479859,20.00643232,,,
1469,1107,Łęki,,49.83614099,20.01533049,,,
1470,1108,Trzemeśnia Skrzyżowanie,,49.8287655647682,20.0220277905464,,,
1471,1109,Zasań Szkoła,,49.81962031,20.05392866,,,
1472,1110,Zasań II,,49.81812482,20.06590624,,,
1473,1111,Lipnik Kąty,,49.81005015,20.08199226,,,
1474,1112,Lipnik Folwark,,49.80128654,20.09439069,,,
1475,1113,Lipnik Skrzyżowanie,,49.79362786,20.09193339,,,
602,4248,Wiśniowa Centrum,,49.786995,20.116525,,,
1476,1115,Wiśniowa I,,49.77401519,20.11283829,,,
1477,1116,Kobielnik Sklep,,49.77063985,20.10507536,,,
1478,1117,Kobielnik Poczekaj,,49.76742912,20.09928904,,,
1479,1118,Kobielnik Skalski,,49.76068965,20.09458409,,,
1480,1119,Kobielnik Podjaworzyce,,49.75838045,20.08289128,,,
1793,6063,Węglówka Przełęcz,,49.7541241667132,20.0824847817421,,,
1481,1120,Węglówka Szkoła,,49.74710617,20.08272991,,,
1482,1121,Węglówka Boniory,,49.74119531,20.0866546,,,
1483,1122,Węglówka Skrzyżowanie,,49.73380123,20.08572053,,,
1484,1123,Węglówka Sklep,,49.73230475,20.09472067,,,
1485,1124,Węglówka Łęgi,,49.73296141,20.10032951,,,
1794,6061,Kasina Wielka Nowaki,,49.7316398791619,20.1138719916344,,,
1486,1125,Kasina Wielka Ceklarze,,49.72967327,20.1310389,,,
1487,1126,Kasina Wielka,,49.72400449,20.13929267,,,
1488,1127,Kasina Wielka Skrzyżowanie na PKP,,49.71887054,20.13686829,,,
1489,1128,Kasina Wielka Skrzyżowanie,,49.7005624,20.12856671,,,
1490,1129,Mszana Dolna Śmieszki,,49.6973387372995,20.1249361038208,,,
1491,1130,Mszana Dolna Słomka,,49.69098036,20.11617677,,,
1492,1131,Mszana Dolna Os. Aksamity,,49.68555474,20.10766984,,,
2531,3292,Mszana Dolna Jana Pawła II,,49.676110821452,20.0825102630414,,,
1493,1132,Mszana Dolna Dworzec Autobusowy,,49.6749870516491,20.0767418430435,,,
2532,3290,Mszana Dolna Gronoszowa,,49.6667791884304,20.0821853228286,,,
2533,3164,Mszana Dolna Gronoszowa I,,49.6588308121887,20.0742823227366,,,
2534,3166,Mszana Dolna Gronoszowa II,,49.6539463185548,20.0723044424952,,,
2535,3194,Podobin I,,49.6478459264464,20.0744781242523,,,
2536,3192,Podobin II,,49.6424880124998,20.0785799271422,,,
2537,3190,Podobin III,,49.6372265457311,20.081373129771,,,
2538,3188,Niedźwiedź Szkoła,,49.6242969919138,20.08282196376,,,
2539,3186,Urząd Gminy Niedźwiedź,,49.6215579916192,20.0825804053079,,,
2540,3184,Poręba Wielka Krokus,,49.6165399515993,20.0693759587414,,,
2541,3182,Poręba Wielka Kaciki,,49.612876975144,20.0645349150788,,,
2542,3180,Poręba Wielka Szkoła,,49.6070623315794,20.0638911139402,,,
2543,3178,Poręba Wielka Rusnaki,,49.6025897981734,20.0693793887396,,,
2544,3176,Poręba Wielka Borek,,49.5967168047731,20.0755391461168,,,
2545,3174,Poręba Wielka Malarze,,49.5932025531849,20.080623011581,,,
2546,3169,Poręba Wielka Garaże,,49.5917991385868,20.0825304415307,,,
2547,3172,Poręba Wielka Koninki,,49.5880474179429,20.0842491999239,,,
2504,3170,Poręba Wielka Koninki Ośrodek Narciarski,,49.5839662066521,20.0838666264157,,,
775,511,Szczurowa Młyn,,50.122455,20.618603,,,
776,519,Strzelce Małe Skrzyżowanie,,50.124825,20.59717,,,
777,525,Strzelce Małe,,50.126371,20.579788,,,
778,514,Uście Solne (skrzyż. Barczków),,50.123499,20.55668,,,
779,505,Uście Solne,,50.125734,20.523035,,,
768,4219,Uście Solne Rynek,,50.1207810295451,20.5133092403412,,,
780,4221,Uście Solne Kościół,,50.119042,20.514019,,,
781,506,Niedary Skrzyżowanie,,50.11824,20.502785,,,
782,2318,Bieńkowice,,50.0992785076132,20.4951274513409,,,
783,2314,Wyżyce Skrzyżowanie,,50.0859501956593,20.4891318082809,,,
784,2313,Wyżyce Szkoła,,50.0893316172987,20.4842572226879,,,
785,2306,Wola Drwińska Dom Kultury,,50.0984282838278,20.4677073947071,,,
786,488,Drwinia,,50.0955662152704,20.4524606466293,,,
787,4222,Dziewin II Ośrodek Zdrowia,,50.075072,20.455287,,,
788,4224,Dziewin Leśniczówka,,50.073931,20.459203,,,
789,4226,Dziewin Graniczna,,50.070889,20.460675,,,
790,4228,Mikluszowice II OSP,,50.065166,20.462059,,,
791,4230,Mikluszowice Skrzyżowanie,,50.060636,20.463909,,,
792,4232,Mikluszowice Kościół,,50.058767,20.460999,,,
793,4234,Gawłówek Ług,,50.053656,20.456954,,,
794,466,Gawłówek,,50.051898,20.451989,,,
795,454,Baczków,,50.039115,20.443965,,,
796,450,Baczków Szkoła,,50.032205,20.441466,,,
797,442,Baczków Leśniczówka,,50.022019,20.437905,,,
798,438,Proszówki Market,,50.015268,20.434605,,,
799,431,Proszówki Most,,50.008239,20.430519,,,
800,424,Proszówki Szkoła,,50.002846,20.427339,,,
801,422,Proszówki Rajszula,,50.001065,20.42743,,,
802,418,Proszówki Sklep,,49.997195,20.43035,,,
803,413,Bochnia ul. Proszowska (skrzyż. z ul. Hutniczą),,49.992487,20.43071,,,
804,409,Bochnia ul. Proszowska,,49.9897,20.430164,,,
805,405,Bochnia ul. Proszowska (skrzyż. z ul. Staszica),,49.985257,20.429294,,,
806,401,Bochnia ul. Proszowska (skrzyż. z ul. Partyzantów),,49.980337,20.42835,,,
807,396,Bochnia ul. Konstytucji 3-go Maja,,49.976463,20.427465,,,
2276,2875,Tarnów Krzyska - Fatimskiej,,50.0274171429525,20.9959385393975,,,
2277,2876,Tarnów Krzyska - Cmentarz I,,50.0330138076407,20.9951546769086,,,
2278,2877,Tarnów Krzyska - Cmentarz II,,50.0365736514585,20.9934198626806,,,
2279,2878,Tarnów Krzyska - Dutkiewicza,,50.0408897075994,20.9916935838967,,,
2280,2879,Tarnów Krzyska - Szkoła,,50.0446207612894,20.9926925375852,,,
2281,2880,Tarnów Krzyska - Fałata,,50.0482072908685,20.9919959364799,,,
2282,2881,Tarnów Krzyska - Bukowa,,50.0519223840811,20.9911198862626,,,
2283,2882,Tarnów Krzyska - Boisko,,50.0559378726101,20.9892306238556,,,
2284,2883,Tarnów Krzyska - Wiśniowa,,50.0587765280193,20.9887548161272,,,
2285,2903,Pawęzów Autostrada,,50.0634937205956,20.9862431464139,,,
2286,2905,Pawęzów Granica,,50.0669143829369,20.9843415008552,,,
2287,2907,Pawęzów Szkoła,,50.0698784095933,20.9858121316691,,,
2294,2917,Pawęzów,,50.0739572360794,20.9856214217738,,,
2295,2918,Śmigno Marszówka,,50.0782290833173,20.9869244321843,,,
2296,2920,Śmigno Pętla,,50.0801424613325,20.9976766257666,,,
2297,2922,Śmigno Na górze,,50.0814493316843,21.005498951933,,,
2298,2924,Lisia Góra Granica,,50.0829346877985,21.0106701040643,,,
2299,2926,Lisia Góra,,50.0839244644342,21.0256227985953,,,
2300,2928,Kobierzyn Skrzyżowanie,,50.1070609686798,21.0114354517468,,,
2301,2930,Kobierzyn Sklep,,50.103114152462,20.996098581945,,,
2303,2934,Łukowa Polany II,,50.110085665912,20.9717179909087,,,
2304,2936,Łukowa Polany I,,50.1072194298831,20.9723877994023,,,
2305,2938,Łukowa Kiosk,,50.1028003390495,20.9711360195179,,,
2306,2940,Łukowa Białasówka,,50.098219754765,20.973884777915,,,
2307,2942,Łukowa Centrum,,50.0928638337566,20.9754163444124,,,
2308,2944,Łukowa Zakręt,,50.0873084242541,20.9741590028679,,,
1270,429,Tarnów Do Huty P+R,,50.0042567858856,20.9733402729034,,,
1132,430,Bogumiłowice PKP,,50.0072287632284,20.8693939447403,,,
1783,426,Biadoliny Szlacheckie,,50.003387,20.734926,,,
1784,417,Sterkowiec,,49.9941017182288,20.6804001331329,,,
1785,412,Jodłówka Przedszkole,,49.991126,20.539194,,,
1786,411,Rzezawa Gmina,,49.990587,20.518916,,,
739,391,Bochnia ul. Trudna,,49.974961,20.437387,,,
1944,8970,Trstená - SAD,,49.3638416589701,19.6177161654507,,,
1945,8972,Trstená - Panasonic,,49.3640073323845,19.6237334885381,,,
1946,8974,Liesek - dol.koniec,,49.3592142372025,19.6644610793334,,,
1947,8976,Liesek - Jednota,,49.3603408556562,19.6736020960147,,,
1948,8978,Liesek - vyš.koniec,,49.3618011279029,19.679828368133,,,
1949,8980,Čimhová - Jednota,,49.3614256479561,19.6920862465618,,,
1950,8982,Čimhová - byt.RD,,49.3616263146357,19.6993788398276,,,
1951,8984,Vitanová - rázc.,,49.3586919018489,19.7202491400323,,,
1952,8986,Vitanová - RD,,49.3636587394817,19.7319982100138,,,
1953,8988,Hladovka - dol.koniec,,49.3682222445297,19.7482699989799,,,
1954,8990,Hladovka - Jednota,,49.3692668607349,19.757203518966,,,
1955,8992,Hladovka - byt.RD,,49.3679270154575,19.7680213822182,,,
1956,8994,Suchá Hora - ZŠ,,49.3655720041869,19.7828947770562,,,
1957,8996,Suchá Hora - Jednota,,49.3659636460034,19.7897896227435,,,
1958,8998,Suchá Hora - št.hr,,49.3654883654959,19.7982955902105,,,
1230,972,Chochołów Granica,,49.36489555,19.80447191,,,
1231,973,Chochołów I,,49.366927507623,19.817533493042,,,
1232,974,Chochołów Górny,,49.35617228,19.81910617,,,
1233,975,Witów Dolny (Chochołowskie Termy),,49.3503605,19.8211273,,,
1234,976,Witów,,49.34445462,19.82257215,,,
1235,977,Witów Szkoła,,49.33419321,19.82331638,,,
1236,978,Witów II,,49.32391549,19.82497296,,,
1237,979,Witów Wspólnota Leśna,,49.31742808,19.82765349,,,
1238,980,Witów Kojsówka Niżna,,49.31219873,19.83095309,,,
1239,981,Witów Długoszówka,,49.30061857,19.83844208,,,
1240,982,Witów Dolina Chochołowska Skrzyżowanie,,49.28958984,19.85049468,,,
1241,983,Witów Biały Potok,,49.28514659,19.85437086,,,
1242,984,Kościelisko Dolina Kościeliska,,49.27595422,19.86737096,,,
1243,985,Kościelisko Urząd Gminy,,49.27662191,19.87881325,,,
1244,986,Kościelisko Nędzówka,,49.27679196,19.88486045,,,
1245,987,Kościelisko Chotarz Hajduk,,49.28077127,19.88725756,,,
1246,988,Kościelisko Chotarz Polany,,49.28522728,19.88854646,,,
1247,989,Kościelisko Szeligówka,,49.28974976,19.88757233,,,
1248,990,Kościelisko Ośrodek Zdrowia,,49.29130709,19.89367786,,,
1249,991,Kościelisko Wojdyłówka,,49.29120384,19.89964017,,,
1250,992,Kościelisko WDW,,49.2908033,19.90302215,,,
1251,993,Kościelisko Karpielówka,,49.29078487,19.90626212,,,
1252,994,Kościelisko Sobiczkowa,,49.29098462,19.91398543,,,
1253,995,Zakopane Czajki,,49.29144015,19.92570244,,,
1254,996,Zakopane Szymaszkowa,,49.29359243,19.93386039,,,
1255,997,Zakopane Górka,,49.29603949,19.94445949,,,
1256,4384,Zakopane Równia Krupowa,,49.29637825,19.95496743,,,
1257,4385,Zakopane ul. Chramcówki,,49.30370508,19.95976054,,,
1258,1001,Zakopane ul. Kasprowicza,,49.30736618,19.96072529,,,
1259,1002,Zakopane Spyrkówka,,49.30962531,19.96799791,,,
1260,1003,Zakopane Ustup,,49.32111572,19.98634363,,,
1261,1004,Poronin Misiagi,,49.33118894,19.99936229,,,
1262,1005,Poronin Dom Kultury,,49.33636479,20.00634314,,,
1263,1006,Poronin Jesionkówka,,49.33156653,20.01759006,,,
1264,1007,Poronin Kośle,,49.33113918,20.02716369,,,
1265,1008,Poronin Kośne Hamry,,49.33228778,20.04082631,,,
1266,1009,Poronin Stasikówka,,49.33631895,20.06396525,,,
1267,1010,Bukowina Tatrzańska Klin,,49.33024353,20.09711755,,,
1268,1011,Bukowina Tatrzańska Poczta,,49.3366091,20.09937032,,,
1269,1012,Bukowina Tatrzańska Kościół,,49.34248349,20.1083765,,,
2706,3315,Bukowina Tatrzańska Dolna,,49.3580696868701,20.1236940299059,,,
2885,3364,Vysoké Tatry Horný Smokovec Pekná vyhliadka,,49.1396528333142,20.2336060472117,,,
2886,3362,Vysoké Tatry Horný Smokovec rázc.,,49.1430620191423,20.2416108043288,,,
2887,3360,Vysoké Tatry Tatr. Lesná,,49.1501348303943,20.2567589602563,,,
2888,3357, Vysoké Tatry Stará Lesná TEŽ ,,49.1555228857917,20.2713797590729,,,
2890,3355,Vysoké Tatry Tatranské Matliare ,,49.1754180085833,20.2941149943422,,,
2891,3353,Vysoké Tatry Tatr.Lomnica Biela Voda,,49.1879082023904,20.2928368511044,,,
2892,3351,Vysoké Tatry Kežmarské Žľaby,,49.1944623780074,20.3013156545469,,,
2893,3349,"Vysoké Tatry Tatr. Kotlina, Čarda ",,49.2249249844102,20.3242949694158,,,
2894,3347,Vysoké Tatry Tatr.Kotlina Bel.jask.,,49.229597266779,20.3174327580508,,,
2895,3344,Vysoké Tatry Tatr. Kotlina Kardolina,,49.2464810342932,20.3105243661443,,,
2896,3343,Ždiar rázcestie Bachledova dolina,,49.2637162615993,20.2995467370769,,,
2897,3341,Ždiar materská škola,,49.2665155487023,20.2918491975062,,,
2898,3337,Ždiar Píla,,49.2711316610111,20.2764912467909,,,
2899,3335,Ždiar Tatra,,49.2696449356207,20.2674120259141,,,
2900,3333,Ždiar Odbočka,,49.2735046578657,20.2447092989362,,,
2901,3331,Ždiar Strednica,,49.273902430721,20.2297527346675,,,
2902,3329,Tatr.Javorina Podspády,,49.2806864969721,20.1754225024051,,,
2903,3327,Jurgów Granica,,49.3048762940139,20.1604818659126,,,
2701,3324,Jurgów II,,49.3345481025181,20.1454677315984,,,
2702,3322,Jurgów Remiza,,49.3398967506948,20.1388673771777,,,
2703,3320,Jurgów I,,49.3425731960538,20.1359167944485,,,
2704,3318,Czarna Góra,,49.357881129,20.131598894,,,
2705,3316,Bukowina Tatrzańska Dolna I,,49.3576983243001,20.1254632949028,,,
2707,3313,Białka Tatrzańska Kaniówka,,49.3690651497037,20.1138969312307,,,
2708,3310,Białka Tatrzańska Korkoszówka,,49.3766956491414,20.1124319739525,,,
2709,3309,Białka Tatrzańska Środkowa,,49.3844277623429,20.1072109965104,,,
2710,3307,Białka Tatrzańska Szkoła,,49.3895443480992,20.1050780390268,,,
2711,3305,Białka Tatrzańska Burkat,,49.3949250775692,20.1055596366082,,,
2712,3303,Białka Tatrzańska Dolna,,49.4015961605,20.10477879,,,
2713,3301,Białka Tatrzańska Grapa,,49.4103811676684,20.099832100238,,,
2714,3299,Groń,,49.4237389337301,20.089695297831,,,
2715,3297,Gronków Górny,,49.4378962718074,20.0824555999606,,,
1369,2701,Wysowa Beskid,,49.44134075,21.18237172,,,
1370,2700,Wysowa Glinik,,49.43847809,21.18225894,,,
1371,2698,Wysowa PPU,,49.4360437,21.17727157,,,
1372,2696,Wysowa Rozlewnia,,49.43826319,21.17468484,,,
1373,2695,Wysowa Niżna,,49.44250033,21.17335487,,,
1374,2692,Wysowa I Kowal,,49.44738494,21.17024677,,,
1375,2691,Hańczowa Obrzut,,49.45335448,21.1636617,,,
1376,2686,Hańczowa Szafran,,49.46186582,21.16035034,,,
1377,2688,Hańczowa Szkoła,,49.47041808,21.16066543,,,
1918,2679,Hańczowa Górna,,49.476616756252,21.1579669417679,,,
1919,2676,Hańczowa Łukacyn,,49.4821077950837,21.1554681336775,,,
1920,2672,Hańczowa Dół,,49.4866505763684,21.152921950609,,,
1921,6070,Hańczowa Za Osuwiskiem,,49.4904344449306,21.1494556268516,,,
1922,2670,Hańczowa I,,49.4948344092057,21.1454535587685,,,
1382,2657,Uście Gorlickie I,,49.50288311,21.13753163,,,
1383,2645,Czarna Skrzyżowanie I,,49.50871256,21.12917999,,,
1384,2650,Uście Gorlickie Szkoła,,49.51757985,21.13344989,,,
1385,2659,Uście Gorlickie,,49.52237685,21.13800601,,,
1386,2651,Uście Gorlickie Spichlerz,,49.52562676,21.13366013,,,
1387,2619,Klimkówka Stanica Wodna,,49.54661812,21.08287803,,,
1388,2613,Klimkówka Zapora,,49.55562725,21.07319011,,,
1389,2605,Ropa Wola,,49.5643442,21.06695199,,,
1390,2609,Ropa Most,,49.57278421,21.06776496,,,
1391,2596,Ropa Szkoła II,,49.57884754,21.05732906,,,
1392,2589,Ropa Orlik,,49.58303175,21.05248371,,,
1393,2579,Ropa,,49.58680517,21.04521929,,,
1394,2577,Ropa Szkoła I,,49.6001821,21.04389656,,,
1395,2575,Ropa Skrzyżowanie,,49.60519896,21.03937473,,,
1396,2585,Szymbark Granica,,49.61160301,21.0506481,,,
1397,2611,Szymbark Łęgi,,49.61483632,21.06827751,,,
1398,2623,Szymbark Zimna Woda,,49.61945906,21.08398234,,,
1399,2628,Szymbark Szkoła,,49.62307993,21.09545865,,,
1400,2632,Szymbark Watra,,49.62489771,21.10177924,,,
1401,2637,Szymbark Bielanka Skrzyżowanie,,49.62701376,21.11705539,,,
1402,2643,Szymbark Bystra,,49.63024076,21.12581376,,,
1403,2648,Ropica Polska Wodociągi,,49.63328395,21.13128439,,,
1404,2655,Ropica Polska I,,49.63616989,21.13705357,,,
1405,2665,Ropica Polska Kościół,,49.63932279,21.14196071,,,
1406,2669,Ropica Polska Tarasowa,,49.64366375,21.14690579,,,
1407,2675,Gorlice Zawodzie II Cerkiew,,49.64849512,21.15215568,,,
1408,2684,Gorlice ul. Kościuszki,,49.65411349,21.15912765,,,
1409,2685,Gorlice ul. Legionów,,49.65926855,21.15983419,,,
1410,2678,Gorlice Stawiska,,49.6613467,21.15487254,,,
1411,2667,Gorlice Kogutek,,49.66487926,21.14396856,,,
1412,2662,Stróżówka,,49.67493395,21.14011491,,,
1413,2656,Stróżówka Cmentarz,,49.68151489,21.13732365,,,
1414,2647,Mszanka,,49.68886872,21.13097658,,,
1415,2640,Mszanka PKP,,49.69542591,21.12351023,,,
1416,2638,Moszczenica Skrzyżowanie,,49.7049614,21.1171672,,,
1417,2635,Moszczenica I,,49.71651835,21.11289831,,,
1418,2630,Moszczenica OSP,,49.7326523,21.09629981,,,
1419,2625,Moszczenica II,,49.73783883,21.09047416,,,
1420,2621,Moszczenica Kuklówka,,49.74277366,21.08367232,,,
1421,2616,Moszczenica Wiatrak,,49.74924957,21.07967421,,,
1422,2614,Turza Granica,,49.75334008,21.07419686,,,
1423,2610,Turza Pańskie Pola,,49.7618972981137,21.0679256916046,,,
1424,2603,Turza Kościół,,49.76622802,21.06071181,,,
1425,2601,Turza Młynek,,49.7773668,21.05893783,,,
1426,2588,Rzepiennik Biskupi Skrzyżowanie,,49.79147476,21.05159775,,,
1427,2568,Rzepiennik Strzyżewski Szkoła,,49.80767839,21.0347178,,,
1428,2557,Rzepiennik Strzyżewski,,49.8139698,21.01455222,,,
1429,2550,Rzepiennik Marciszewski,,49.82457138,21.00814417,,,
1430,2546,Rzepiennik Marciszewski Dom Ludowy,,49.8307963,21.0035721,,,
1431,2534,Golanka,,49.83478814,20.99197292,,,
1432,2517,Golanka II,,49.83779882,20.98434985,,,
1433,2512,Chojnik Granica,,49.84237712,20.97681725,,,
1434,2515,Chojnik II,,49.85161282,20.98392869,,,
1435,2544,Chojnik I,,49.85189582,20.99856782,,,
1436,2556,Siedliska Osiedle,,49.8574328,21.01422167,,,
1437,2562,Siedliska,,49.86062116,21.01809475,,,
1438,2566,Siedliska I,,49.86351094,21.02907881,,,
1439,2570,Dąbrówka Tuchowska CPN,,49.86571916,21.03542725,,,
1440,2578,Dąbrówka Tuchowska Szkoła,,49.87209967,21.04470073,,,
1441,2591,Tuchów Burzyn,,49.88295105,21.05330294,,,
1442,2598,Tuchów Klasztor,,49.90408021,21.05768712,,,
1443,2593,Zabłędza Karwodrza,,49.91514863,21.05452892,,,
1444,2582,Zabłędza Szkoła,,49.91842808,21.04650148,,,
1445,2569,Zabłędza,,49.92571159,21.03512888,,,
1446,2565,Zabłędza I,,49.92988674,21.02850662,,,
1447,2561,Łękawka Parking,,49.93482526,21.01579532,,,
596,4257,Czasław Wżary,,49.832947,20.117461,,,
597,4250,Poznachowice D. Skrz na Glichów,,49.822459,20.116872,,,
598,4255,Poznachowice D. OSP,,49.813805,20.117347,,,
599,4265,Wiśniowa III,,49.808215,20.120613,,,
600,4266,Wiśniowa II,,49.802813,20.120892,,,
601,4261,Wiśniowa Michalikówka,,49.797531,20.11985,,,
603,4244,Wiśniowa I,,49.773828,20.114256,,,
604,4253,Wierzbanowa I,,49.767618,20.117088,,,
605,4267,Wierzbanowa II,,49.762492,20.121614,,,
606,4269,Wierzbanowa III Skrzyżowanie,,49.7559713946218,20.1303917169571,,,
607,4502,Przenosza,,49.7538684537401,20.164213282504,,,
608,4283,Skrzydlna Skrzyżowanie,,49.74994,20.186955,,,
609,4289,Skrzydlna Zagórze I,,49.740693,20.19543,,,
610,4294,Porąbka Rola,,49.726124,20.199609,,,
611,4299,Porąbka,,49.725186,20.211733,,,
612,4301,Porąbka Szkoła,,49.727043,20.214662,,,
613,4314,Dobra Zadziele,,49.726097,20.229919,,,
614,4326,Dobra PKP,,49.723047,20.239865,,,
615,2246,Dobra UG-Park,,49.7178505941747,20.251037369721,,,
616,2248,Dobra Noworolniki,,49.72346655063,20.2614390850067,,,
617,2252,Dobra Drożdże,,49.726275013994,20.2704136537586,,,
618,2254,Podłopień Jasna,,49.7316974040622,20.2781307179498,,,
619,2257,Podłopień Dolny,,49.7362062185169,20.2937876558049,,,
620,2259,Tymbark Góry,,49.7350274018917,20.3084635734558,,,
621,2264,Tymbark PKP,,49.7313860393633,20.3189726039706,,,
622,2270,Tymbark Rynek,,49.7295612378092,20.3246725223469,,,
623,2267,Tymbark Szkoła,,49.7229186075184,20.3243958950043,,,
624,2268,Tymbark (DK28),,49.7215178588015,20.3246171104742,,,
625,2274,Zamieście I,,49.7215878818139,20.3405001250739,,,
626,4495,Zamieście II,,49.7210899221863,20.348216040321,,,
627,4496,Przylaski,,49.7215657172842,20.3658499566462,,,
628,4497,Limanowa Sowliny Sucha,,49.7187984321374,20.3843808174133,,,
629,4498,Limanowa Sowliny,,49.7215747077191,20.402035367878,,,
2212,9018,KRAKÓW LOTNISKO (KRAKÓW AIRPORT),,50.0715466495615,19.8003029823303,,,
2213,656,KRAKÓW GŁÓWNY (KRAKÓW MAIN STATION),,50.0680965921019,19.9493050575256,,,
2650,2895,Śmigno Kościół,,50.0823129782012,20.9953397810842,,,
2651,2898,Śmigno Wieś,,50.0821418355059,20.9858985127851,,,
2652,2900,Śmigno Bar,,50.0804249730679,20.9856056384364,,,
2653,2901,Śmigno Marszówka,,50.0787140648809,20.9860723428265,,,
2505,3171,Poręba Wielka Koninki,,49.5886958829719,20.0840903694579,,,
2506,3173,Poręba Wielka Malarze,,49.5934596933977,20.0805845565831,,,
2507,3175,Poręba Wielka Borek,,49.5970534874098,20.0749546822575,,,
2508,3177,Poręba Wielka Rusnaki,,49.6018390911437,20.0706108363675,,,
2509,3179,Poręba Wielka Szkoła,,49.6072224973974,20.0636892910245,,,
2510,3181,Poręba Wielka Kaciki,,49.6119472056489,20.0640605137237,,,
2511,3183,Poręba Wielka Krokus,,49.6168830180449,20.0701602185469,,,
2512,3185,Urząd Gminy Niedźwiedź,,49.6217467466887,20.0831660730588,,,
2513,3187,Niedźwiedź Szkoła,,49.6248988009406,20.0837314701411,,,
2514,3189,Podobin III,,49.6374952316409,20.0812259455532,,,
2515,3191,Podobin II,,49.6431287397924,20.0784674509619,,,
2516,3193,Podobin I,,49.6462481863173,20.0763247947828,,,
2517,3167,Mszana Dolna Gronoszowa II,,49.654422133319,20.0723972408823,,,
2518,3165,Mszana Dolna Gronoszowa I,,49.6592093229748,20.0747490271048,,,
2519,3168,Mszana Dolna Gronoszowa,,49.6686272193061,20.0837206554818,,,
1495,1134,Mszana Dolna Centrum,,49.67556845,20.08221651,,,
1496,1135,Mszana Dolna Os. Aksamity,,49.68590883,20.10880395,,,
1497,1136,Mszana Dolna Słomka,,49.69138363,20.11686353,,,
1498,1137,Mszana Dolna Śmieszki,,49.69752422,20.12607903,,,
1499,1138,Kasina Wielka Skrzyżowanie,,49.70126639,20.12934432,,,
1500,1139,Kasina Wielka Skrzyżowanie na PKP,,49.71992606,20.137628,,,
1501,1140,Kasina Wielka,,49.72455999,20.13890241,,,
1502,1141,Kasina Wielka Ceklarze,,49.7301615,20.13054279,,,
1791,6060,Kasina Wielka Nowaki,,49.7317144280099,20.1138693094254,,,
1503,1142,Węglówka Łęgi,,49.73308446,20.09984493,,,
1504,1143,Węglówka Sklep,,49.73242243,20.09435463,,,
1505,1144,Węglówka Skrzyżowanie,,49.73390005,20.08576076,,,
1506,1145,Węglówka Boniory,,49.74083824,20.08669215,,,
1507,1146,Węglówka Szkoła,,49.7474944,20.08198425,,,
1792,6062,Węglówka Przełęcz,,49.7541518929805,20.0827449560165,,,
1508,1147,Kobielnik Podjaworzyce,,49.7583633,20.0837732,,,
1509,1148,Kobielnik Skalski,,49.76089654,20.09509834,,,
1510,1149,Kobielnik Poczekaj,,49.76711008,20.09920108,,,
1511,1150,Kobielnik Sklep,,49.77067782,20.10543003,,,
1512,1153,Lipnik Skrzyżowanie,,49.79494675,20.09220147,,,
1513,1154,Lipnik Folwark,,49.80123633,20.09468842,,,
1514,1155,Lipnik Kąty,,49.81036162,20.08155921,,,
1515,1156,Zasań II,,49.81835475,20.06551379,,,
1516,1157,Zasań Szkoła,,49.81974692,20.05327232,,,
1517,1158,Trzemeśnia Skrzyżowanie,,49.82859823,20.02212795,,,
1518,1159,Łęki,,49.83539111,20.01634322,,,
1519,1160,Droginia Osiedle,,49.84791153,20.00651815,,,
1520,1161,Osieczany Betoniarnia,,49.84410735,19.98794631,,,
1521,1162,Osieczany Kmiecie,,49.84050328,19.97819902,,,
1522,1163,Osieczany Skrzyżowanie,,49.8381648,19.97467082,,,
2654,2902,Śmigno Marszówka,,50.0787140648809,20.9862064532749,,,
2655,2899,Śmigno Bar,,50.0804972636175,20.9857558421386,,,
2656,2897,Śmigno Wieś,,50.0820833166007,20.9860379876514,,,
2657,2896,Śmigno Kościół,,50.0826977728861,20.9950016726735,,,
818,2039,Ryczów Wróblówki,,49.98563042,19.53458386,,,
819,2041,Ryczów PKP,,49.98746853,19.54208206,,,
820,2042,Ryczów Za Kościołem,,49.9810249,19.55266378,,,
821,2045,Ryczów Za Torami,,49.98325127,19.56016962,,,
822,2050,Ryczów Łęg,,49.9852759296083,19.5642524957657,,,
823,2053,Łączany Granica,,49.98511583,19.56813222,,,
825,2060,Łączany Plac św. Floriana,,49.9828269087331,19.581064581871,,,
826,2062,Łączany Skład,,49.98391718,19.58856594,,,
827,2064,Łączany Zapora,,49.98536275,19.59330249,,,
828,2066,Rusocice Na Brzegu,,49.99975936,19.60181382,,,
829,2069,Rusocice Skład,,49.99468029,19.60647356,,,
830,2070,Rusocice Łęg,,49.99533151,19.61825825,,,
1990,2793,Kłokoczyn Machaczki,,49.9962251643416,19.6318163564361,,,
831,2073,Kłokoczyn Szkoła,,49.9950155897274,19.6393275260925,,,
832,2074,Czernichów Ratanice,,49.9969191455334,19.650587439537,,,
833,2076,Czernichów Ratanice Most,,49.99524919,19.65734648,,,
834,2079,Czernichów Zakamycze,,49.99304336,19.66659534,,,
836,867,Czernichów Studzienki,,49.99202855,19.68539524,,,
837,868,Czernichów Stacja Paliw,,49.99190139,19.68929011,,,
838,869,Wołowice Niwka,,49.98847858,19.70246183,,,
839,870,Wołowice Pichonówka,,49.9885514,19.71280831,,,
840,871,Wołowice Sklep,,49.98946307,19.72116517,,,
841,872,Wołowice Remiza,,49.98874879,19.72693255,,,
842,873,Wołowice Kapliczka,,49.98632036,19.72788985,,,
843,874,Wołowice Zawierzbie,,49.98173001,19.74491716,,,
844,875,Wołowice Grotowa Skrzyżowanie,,49.9845141,19.75456642,,,
845,876,Jeziorzany Górskie Domy,,49.98156214,19.76665778,,,
846,877,Jeziorzany Pętla,,49.98711294,19.77848068,,,
847,878,Jeziorzany Rondo,,49.99342623,19.77655837,,,
849,879,Rączna Cracovia Centrum Treningowe,,50.0040602565446,19.7666600346565,,,
850,880,Rączna Remiza,,50.00808848,19.76744387,,,
2938,,Kraków Mydlniki,,50.0834073533491,19.8589629765688,,,
738,4236,Bochnia ul. Poniatowskiego,,49.976827,20.435439,,,
741,402,Bochnia ul. Proszowska (skrzyż. z ul. Partyzantów),,49.980472,20.428431,,,
742,404,Bochnia ul. Proszowska (skrzyż. z ul. Staszica),,49.984808,20.429287,,,
743,410,Bochnia ul. Proszowska,,49.989972,20.430253,,,
744,416,Bochnia ul. Proszowska (skrzyż. z ul. Hutniczą),,49.992991,20.430857,,,
745,419,Proszówki Sklep,,49.99774,20.430031,,,
746,423,Proszówki Rajszula,,50.001431,20.427462,,,
747,425,Proszówki Szkoła,,50.003288,20.427736,,,
748,432,Proszówki Most,,50.008705,20.43089,,,
749,439,Proszówki Market,,50.015685,20.434889,,,
750,443,Baczków Leśniczówka,,50.022307,20.438218,,,
751,451,Baczków Szkoła,,50.033051,20.44156,,,
752,455,Baczków,,50.039513,20.444185,,,
753,465,Gawłówek,,50.05183,20.452094,,,
754,4235,Gawłówek Ług,,50.054306,20.457613,,,
755,4233,Mikluszowice Kościół,,50.058939,20.461231,,,
756,4231,Mikluszowice Skrzyżowanie,,50.060911,20.464075,,,
757,4229,Mikluszowice II OSP,,50.065241,20.462101,,,
758,4227,Dziewin Graniczna,,50.070888,20.4608,,,
759,4225,Dziewin Leśniczówka,,50.073935,20.459281,,,
760,4223,Dziewin III Ośrodek Zdrowia,,50.075188,20.455187,,,
761,475,Dziewin,,50.075997,20.455179,,,
762,4510,Drwinia Urząd Gminy,,50.0957451637023,20.4529219865799,,,
763,2307,Wola Drwińska Dom Kultury,,50.0982746729294,20.468331221877,,,
764,2312,Wyżyce Szkoła,,50.0894692051366,20.4841149858183,,,
765,2315,Wyżyce Skrzyżowanie,,50.0859214599398,20.4891674702139,,,
766,2319,Bieńkowice,,50.0993515204043,20.4958963394165,,,
767,503,Niedary Skrzyżowanie,,50.1182288442796,20.5023390054703,,,
769,504,Uście Solne,,50.125652,20.523016,,,
770,515,Uście Solne (skrzyż. Barczków),,50.123628,20.557803,,,
771,524,Strzelce Małe,,50.126244,20.580378,,,
772,516,Strzelce Małe Skrzyżowanie,,50.123836,20.598065,,,
773,510,Szczurowa Młyn,,50.12215,20.619557,,,
2982,,Kraków Młynówka,,50.0814055535027,19.8583179687067,,,
2960,,Kraków Zakliki,,50.0796009821579,19.8487651348114,,,
2959,,Kraków Olszanica,,50.0763924937342,19.8257759213448,,,
982,4521,Cianowice Duże,,50.2042916331288,19.8802730441093,,,
983,840,Cianowice Poręba,,50.21028127,19.87183384,,,
984,841,Skała Wieś,,50.213693,19.86632784,,,
985,842,Skała Rzeplińska,,50.22608102,19.85664979,,,
986,844,Skała Grodzisko,,50.2266453958704,19.830139875412,,,
987,845,Wola Kalinowska,,50.23344903,19.81868525,,,
988,846,Wola Kalinowska Młynnik,,50.2380310773464,19.8097443580627,,,
989,847,Sułoszowa Młyny,,50.24049816,19.79306893,,,
990,848,Sułoszowa Pieskowa Skała,,50.24429716,19.77858943,,,
991,849,Sułoszowa I /Stawy/,,50.24742483,19.77286315,,,
992,850,Sułoszowa Zagrody,,50.250539152317,19.7602093219757,,,
993,851,Sułoszowa Grobla,,50.25576188,19.7537032,,,
994,852,Sułoszowa Szkoła,,50.26154994,19.74430213,,,
995,853,Sułoszowa Stopina Góra,,50.2653424,19.73680765,,,
996,854,Sułoszowa Bar,,50.26995491,19.72537858,,,
997,855,Sułoszowa Sklep,,50.2727203873173,19.7104597091675,,,
998,856,Sułoszowa Remiza,,50.27429708,19.69808136,,,
999,857,Sułoszowa Zachodnia,,50.27648279,19.68559295,,,
1000,858,Sułoszowa Kółko,,50.27677269,19.67744019,,,
1001,859,Kosmolów III,,50.27149746,19.66341243,,,
1002,860,Kosmolów Sklep,,50.27168705,19.65430194,,,
1003,861,Kosmolów Szkoła,,50.27169167,19.64922388,,,
1004,862,Kosmolów I,,50.27199478,19.64079999,,,
1005,863,Zimnodół Wiśliczka,,50.26997328,19.62529405,,,
1006,864,Sieniczno ul. Ojcowska,,50.26740535,19.61429869,,,
1007,865,Sieniczno ul. Olkuska,,50.2674606515352,19.611504971981,,,
44,4381,Olkusz Al. Tysiąclecia,,50.2722335261369,19.5886713266373,,,
2961,,Kraków Młynówka,,50.0811922370232,19.8590339720249,,,
2375,3259,Iwkowa Nagórze Pętla,,49.8275306743307,20.532811,,,
2448,3258,Iwkowa Humiejowo,,49.8263596876799,20.5449470401995,,,
2449,3256,Iwkowa Nagórze Sklep,,49.8244889354511,20.5548574376701,,,
2450,3254,Iwkowa Piechowo,,49.8234136324282,20.5641219524504,,,
2451,3252,Iwkowa Gomółkowo,,49.8210528203743,20.5787607423977,,,
2452,3250,Iwkowa Szkoła,,49.8199592088029,20.5841709318239,,,
2453,3248,Iwkowa Centrum,,49.814382727978,20.5938939414972,,,
2454,3246,Iwkowa Włodykowo,,49.8064889987644,20.6023615890865,,,
2455,3244,Porąbka Iwkowska Centrum,,49.7964691049968,20.59857,,,
2456,3242,Porąbka Iwkowska Granica,,49.7987475915787,20.5879190058108,,,
2457,3240,Wojakowa Słomiana,,49.8007761066377,20.5750551783656,,,
2691,3405,Wojakowa Centrum,,49.8033253630205,20.5611913309246,,,
2458,3238,Wojakowa Dziołek,,49.8066261298519,20.5434945313974,,,
2459,3236,Rajbrot Nagorze,,49.8121720853797,20.5147043002802,,,
2460,3233,Rajbrot Tartak,,49.8161138843753,20.5054607573455,,,
2461,3232,Rajbrot Kapliczka,,49.8191160907662,20.498179249326,,,
1852,4564,Rajbrot Centrum,,49.8216841100474,20.4889272096076,,,
1853,4565,Rajbrot OSP,,49.8261149336034,20.4896204499412,,,
1854,4566,Rajbrot Fielków,,49.8307514587273,20.4871520846505,,,
1855,4567,Rajbrot Dominiczna Góra,,49.8337937860637,20.4866815285679,,,
1856,4568,Rajbrot Podlesie,,49.8395282634846,20.4907375478314,,,
1857,4569,Rajbrot Nadole,,49.8417453461237,20.4936050801672,,,
1858,4570,Lipnica Górna Porzecze,,49.84541394383,20.4999746851358,,,
1859,4571,Lipnica Górna Krzyżówka,,49.848377973789,20.5056090909632,,,
1842,4610,Lipnica Murowana Rynek,,49.8588992646806,20.5278119444847,,,
1843,4573,Lipnica Murowana Dwór,,49.8580429696481,20.5338157660388,,,
1844,4574,Lipnica Murowana Rynek,,49.858824911366,20.5270716547966,,,
1860,4575,Lipnica Górna Wielka Droga,,49.8742701432881,20.5102196722521,,,
1861,4576,Lipnica Górna Wymyślna,,49.8812049240023,20.5043676631707,,,
1862,4577,Lipnica Górna Bukowiec,,49.8867355719771,20.4930946201752,,,
1863,4578,Borówna Skrzyżowanie,,49.8895133660572,20.505462034124,,,
1864,4579,Borówna Kościół,,49.8873338331388,20.5213045515043,,,
1865,4580,Borówna,,49.8906562645665,20.5251379812576,,,
1866,4581,Chronów Skręć,,49.8953427687682,20.5286586579463,,,
1867,4582,Chronów Dwór,,49.8979645970932,20.538121750141,,,
1868,4583,Chronów Skrzyżowanie,,49.9030432728741,20.5369614267947,,,
1869,4584,Kobyle Kącina,,49.9124573016971,20.5366828314379,,,
2462,3228,Kobyle Remiza,,49.9161922129799,20.534922111566,,,
2463,3226,Kobyle Bar,,49.9186931573108,20.5230020822747,,,
2464,3224,Stary Wiśnicz I,,49.9208378262848,20.5088469269613,,,
2465,3222,Stary Wiśnicz II,,49.9231951789667,20.4997855673542,,,
2466,3220,Stary Wiśnicz Biblioteka,,49.9237279639707,20.4880718573064,,,
2467,3218,Stary Wiśnicz Szkoła,,49.9236227491342,20.4810460738103,,,
2468,3216,Stary Wiśnicz Oczyszczalnia,,49.921135722304,20.469416521909,,,
2353,3215,Stary Wiśnicz Oczyszczalnia,,49.9215395735409,20.4704469746053,,,
2354,3217,Stary Wiśnicz Szkoła,,49.9236544072119,20.4819199225845,,,
2355,3219,Stary Wiśnicz Biblioteka,,49.9237101136569,20.4885999808103,,,
2356,3221,Stary Wiśnicz II,,49.9231574617121,20.5000305552913,,,
2357,3223,Stary Wiśnicz I,,49.9211807258359,20.507102719364,,,
2358,3225,Kobyle Bar,,49.9188186197849,20.5218291263335,,,
2359,3227,Kobyle Remiza,,49.9161491903904,20.5348552967273,,,
1832,4600,Kobyle Kącina,,49.9127265748989,20.5365978632395,,,
1833,4601,Chronów Skrzyżowanie,,49.9029573560904,20.5368231928588,,,
1834,4602,Chronów Dwór,,49.8974311452222,20.5374177011785,,,
1835,4603,Chronów Skręć,,49.8955095222988,20.5288429310282,,,
1836,4604,Borówna,,49.8907202721217,20.5249723939919,,,
1837,4605,Borówna Kościół,,49.8874369707641,20.5210224610617,,,
1838,4606,Borówna Skrzyżowanie,,49.8895739160957,20.5054441325274,,,
1839,4607,Lipnica Górna Bukowiec,,49.8864755748236,20.4935985754784,,,
1840,4608,Lipnica Górna Wymyślna,,49.8809793299323,20.5043722697091,,,
1841,4609,Lipnica Górna Wielka Droga,,49.8739280061081,20.5102182097705,,,
1845,4613,Lipnica Górna Krzyżówka,,49.8486153481994,20.5059421611706,,,
1846,4614,Lipnica Górna Porzecze,,49.8453645785395,20.4997163192752,,,
1847,4615,Rajbrot Nadole,,49.8417553628852,20.493391213071,,,
1848,4616,Rajbrot Podlesie,,49.8393028979164,20.4906008950218,,,
1849,4617,Rajbrot Dominiczna Góra,,49.8338158215669,20.4865673258628,,,
1850,4618,Rajbrot Fielków,,49.8305048355743,20.4871903178744,,,
1851,4619,Rajbrot OSP,,49.8264787353294,20.4897124486362,,,
2360,3071,Rajbrot Centrum,,49.82167199274,20.488423705101,,,
2361,3231,Rajbrot Kapliczka,,49.819247561269,20.4976146854184,,,
2362,3234,Rajbrot Tartak,,49.8160939815953,20.5054165008968,,,
2363,3235,Rajbrot Nagorze,,49.8121175646093,20.5146975947576,,,
2364,3237,Wojakowa Dziołek,,49.8058602998345,20.5454587596603,,,
2365,3239,Wojakowa Słomiana,,49.8007648536762,20.5748821758843,,,
2366,3241,Porąbka Iwkowska Granica,,49.7987430375181,20.5875314846459,,,
2367,3243,Porąbka Iwkowska Centrum,,49.7962894478616,20.5982450424197,,,
2368,3245,Iwkowa Włodykowo,,49.8070134896729,20.6021387221069,,,
2369,3247,Iwkowa Centrum,,49.8141008171126,20.594592790169,,,
2370,3249,Iwkowa Szkoła,,49.819991338459,20.5842303689183,,,
2371,3251,Iwkowa Gomółkowo,,49.8211271720622,20.5787399987654,,,
2372,3253,Iwkowa Piechowo,,49.8234424809075,20.5641368554957,,,
2373,3255,Iwkowa Nagórze Sklep,,49.824530464472,20.5548547554611,,,
2374,3257,Iwkowa Humiejowo,,49.8264038651541,20.5449395889546,,,
290,9007,Oświęcim,,50.0413795152761,19.2005127668381,,,
286,4471,Trzebinia,,50.1551878444456,19.4540646672249,,,
210,4506,Chrzanów,,50.1337780371045,19.3995863199234,,,
208,4503,Trzebinia,,50.1546722859082,19.4526565074921,,,
293,9002,Libiąż,,50.1124945302248,19.3273973464966,,,
287,9001,Libiąż,,50.1125977333068,19.3272793292999,,,
